District_Code,State_Name,Population,Male,Female,Literate,Male_Literate,Female_Literate,Scheduled_Caste,Scheduled_Tribe,Workers_Total,Workers_Male,Workers_Female,Workers_Main,Workers_Marginal,Non_Workers,Hindus,Muslims,Christians,Sikhs,Buddhists,Jains,Households_LPG_PNG,Households_Electric_Lighting,Households_Internet,Households_Computer,Households_Rural,Households_Urban,Households_Total,Education_Literate,Education_Illiterate,Education_Total,Age_0_29,Age_30_49,Age_50_plus,Households_Bicycle,Households_Car,Households_Two_Wheeler,Households_Phone,Households_TV,Households_Bathroom,Households_Toilet,State,District,Latitude,Longitude,Sex_Ratio,Literacy_Rate
4,JAMMU AND KASHMIR,140802,77785,63017,86236,56301,29935,18,122336,51873,39839,12034,28941,22932,88929,10341,108239,604,1171,20126,28,3285,15824,235,1005,40370,7774,48144,82938,39854,122792,87532,35561,17488,488,1847,652,10562,8008,11887,17649,Jammu and Kashmir,Kargil,33.565994894894914,76.63675315315312,810.1433438323584,61.246289115211425
5,JAMMU AND KASHMIR,476835,251899,224936,261724,163333,98391,556,176101,161393,117677,43716,73247,88146,315442,32604,431279,958,11188,83,10,13160,62900,346,3342,132139,15269,147408,288430,164044,452474,304979,109818,61334,846,1731,2407,36358,16022,19789,16586,Jammu and Kashmir,Punch,33.791241290322574,74.29593161290322,892.9610677295266,54.88774943114495
7,JAMMU AND KASHMIR,616435,326109,290326,389204,228499,160705,141224,53307,200431,161548,38883,142847,57584,416004,540063,64234,1828,9551,24,16,32772,109422,1443,6112,181374,33473,214847,426572,181297,607869,357864,160123,97684,17726,4687,23014,88964,66944,47372,26033,Jammu and Kashmir,Kathua,32.51781678321678,75.58901398601404,890.2728842196934,63.1378815284661
10,JAMMU AND KASHMIR,1236829,651124,585705,748584,431746,316838,1068,8935,407188,333151,74037,330547,76641,829641,42540,1177342,2746,12187,285,74,138119,165403,16413,33831,4518,257721,262239,904049,310225,1214274,693238,351561,190330,44501,34586,39804,157875,152945,164263,164002,Jammu and Kashmir,Srinagar,34.27312898550724,75.11021159420288,899.5291219491219,60.52445406761969
12,JAMMU AND KASHMIR,560440,293064,267376,293958,178326,115632,402,22607,188420,138428,49992,98306,90114,372020,13840,535159,1109,9440,35,6,16828,73629,1537,5293,147520,21703,169223,310482,190369,500851,342601,137032,80111,5479,6164,4551,65162,45967,61749,53836,Jammu and Kashmir,Pulwama,33.88414418604652,75.00921860465118,912.3467911445964,52.451288273499394
16,JAMMU AND KASHMIR,409936,213641,196295,219083,138620,80463,53408,39216,151912,101144,50768,79377,72535,258024,187621,220614,472,422,21,22,7963,61831,596,3077,122267,11350,133617,248131,163565,411696,263576,93189,52744,563,1804,1550,47031,19244,26716,23060,Jammu and Kashmir,Doda,33.359614675767915,76.07163720136518,918.8077194920451,53.443220405136415
19,JAMMU AND KASHMIR,554985,296784,258201,322354,197543,124811,138569,56309,243672,163845,79827,152442,91230,311313,489044,59771,1962,3418,106,57,20008,73999,1214,5744,148664,34696,183360,330760,194838,525598,339145,140785,74757,3948,3800,8953,64858,37323,21542,18063,Jammu and Kashmir,Udhampur,33.04770670731707,75.15286951219511,869.9963609898108,58.083371622656465
21,JAMMU AND KASHMIR,1529958,813821,716137,1137135,641916,495219,377991,69193,508622,417456,91166,410344,98278,1021336,1289240,107489,12104,114272,470,1987,197168,294739,19905,46657,254566,248043,502609,1173121,268279,1441400,816827,435895,275585,68272,44063,113156,241206,240478,231365,162522,Jammu and Kashmir,Jammu,32.713199095022645,74.8477520361991,879.9686909037737,74.32458930245144
23,HIMACHAL PRADESH,519080,261320,257760,323842,186064,137778,111690,135500,294035,158791,135244,119632,174403,225045,479782,32455,1559,2745,1740,57,21458,96082,1615,5117,186395,13836,200231,344427,154575,499002,306555,130606,81566,1657,5074,8880,73995,62233,46292,52553,Himachal Pradesh,Chamba,32.66741814595661,76.39354063116366,986.3768559620388,62.3876859058334
24,HIMACHAL PRADESH,1510075,750591,759484,1152640,606443,546197,319385,84564,675170,403756,271414,313915,361255,834905,1461140,19797,3023,8929,14511,194,148361,330081,8053,22753,588321,39007,627328,1176288,271892,1448180,766581,419172,319420,38456,22727,69192,274180,272579,229975,220258,Himachal Pradesh,Kangra,32.14093603238864,76.41205910931173,1011.8479971116094,76.32998361008559
26,HIMACHAL PRADESH,437903,225452,212451,307672,174550,133122,122659,16822,269084,148829,120255,193876,75208,168819,415669,2974,1568,1396,15377,94,40064,91322,2623,7010,167995,20709,188704,310349,103136,413485,244727,120510,72282,2450,8479,6979,79454,66910,66129,55831,Himachal Pradesh,Kullu,31.90911922077925,77.40922649350647,942.3336231215513,70.26030878984615
27,HIMACHAL PRADESH,999777,498065,501712,723747,393669,330078,293739,12787,572671,297464,275207,284154,288517,427106,981412,9460,876,4081,2628,43,59324,214491,5333,16401,431129,31696,462825,763468,218570,982038,524285,279321,194661,10927,15958,26366,172205,157314,175038,181985,Himachal Pradesh,Mandi,31.635805940594054,76.96556930693067,1007.3223374459157,72.39084315802424
28,HIMACHAL PRADESH,454768,217070,237698,358091,180555,177536,109256,3044,241931,118724,123207,126153,115778,212837,449412,3711,243,591,95,293,34978,104120,2521,7525,196116,15232,211348,376978,72551,449529,224044,123941,106641,7094,6665,16955,90286,86324,86909,93858,Himachal Pradesh,Hamirpur,31.67668481012659,76.49767088607594,1095.0292532362832,78.74146817718045
28,HIMACHAL PRADESH,454768,217070,237698,358091,180555,177536,109256,3044,241931,118724,123207,126153,115778,212837,449412,3711,243,591,95,293,34978,104120,2521,7525,196116,15232,211348,376978,72551,449529,224044,123941,106641,7094,6665,16955,90286,86324,86909,93858,Uttar Pradesh,Hamirpur,25.738158381502892,79.82619479768789,1095.0292532362832,78.74146817718045
29,HIMACHAL PRADESH,521173,263692,257481,399715,213281,186434,115491,8601,215346,141612,73734,134482,80864,305827,480138,14275,390,26009,56,70,43809,105929,2412,8238,185091,20126,205217,424468,87735,512203,273223,142351,105358,41378,8059,36913,90729,88894,87268,66103,Himachal Pradesh,Una,31.58330388349513,76.18353932038836,976.4460051878707,76.69526241766171
30,HIMACHAL PRADESH,381956,192764,189192,287620,155599,132021,98989,10693,205871,111543,94328,103406,102465,176085,371973,6984,236,2387,113,10,17262,79146,1574,6281,152458,11987,164445,287961,65864,353825,193671,107367,80497,5387,6573,11397,66935,61392,61113,56814,Chhattisgarh,Bilaspur,22.356942982456143,81.99770350877188,981.469569006661,75.3018672307805
30,HIMACHAL PRADESH,381956,192764,189192,287620,155599,132021,98989,10693,205871,111543,94328,103406,102465,176085,371973,6984,236,2387,113,10,17262,79146,1574,6281,152458,11987,164445,287961,65864,353825,193671,107367,80497,5387,6573,11397,66935,61392,61113,56814,Himachal Pradesh,Bilaspur,31.3780422907489,76.65316079295157,981.469569006661,75.3018672307805
31,HIMACHAL PRADESH,580320,308754,271566,428578,244372,184206,164536,25645,298737,190001,108736,219235,79502,281583,548579,14678,1452,13926,574,591,53722,119866,5250,14478,192787,51509,244296,423408,104084,527492,321533,167168,90808,12426,15117,25275,108699,94692,105861,90587,Himachal Pradesh,Solan,31.03864311926604,76.94442140672783,879.5545968635224,73.85201268265784
32,HIMACHAL PRADESH,529855,276289,253566,362645,205617,157028,160745,11262,280083,169399,110684,193906,86177,249772,476830,33215,577,15501,2645,236,28904,91509,2220,8593,171102,21054,192156,368841,140486,509327,310244,136839,82471,16691,7459,17523,75406,58902,74088,60246,Himachal Pradesh,Sirmaur,30.682764453961443,77.43184689507493,917.7564072402448,68.44230968849968
33,HIMACHAL PRADESH,814010,425039,388971,612642,342846,269796,215777,8755,430926,258628,172298,311770,119156,383084,791449,11810,2025,4047,3262,185,108888,172754,9177,24127,279269,95896,375165,623801,137576,761377,425721,241956,145577,2813,23107,8186,161675,131450,153356,123535,Himachal Pradesh,Shimla,31.155725451807253,77.62573042168668,915.1419046252227,75.26222036584316
34,HIMACHAL PRADESH,84121,46249,37872,60699,36697,24002,14750,48746,56273,33863,22410,46782,9491,27848,64732,448,485,249,18086,29,10740,17865,354,2563,44514,0,44514,59428,16944,76372,42360,26599,15075,190,2775,857,16468,12925,13902,13521,Himachal Pradesh,Kinnaur,31.60667184065933,78.51613736263741,818.8717593893922,72.15677417054005
35,PUNJAB,2298323,1212617,1085706,1634719,907660,727059,580576,0,757138,637652,119486,625778,131360,1541185,1074332,27667,176587,1002874,405,580,244468,411216,14428,38445,420860,185488,606348,1528979,478020,2006999,1261421,611353,423301,280874,32484,194705,336075,365644,360051,258924,Punjab,Gurdaspur,32.04283371212125,75.3204064393939,895.3412330521509,71.12659969899792
36,PUNJAB,815168,426311,388857,576567,316254,260313,276707,0,284165,235562,48603,248208,35957,531003,336124,10190,5445,453692,6662,553,110555,161206,9732,23145,165433,95770,261203,575495,174995,750490,433331,222324,157833,107044,23561,90508,145116,144945,149071,137713,Punjab,Kapurthala,31.336592638036837,75.47641165644177,912.1439512468596,70.72983728507498
37,PUNJAB,2193590,1145211,1048379,1622537,882581,739956,854444,0,774472,639484,134988,689592,84880,1419118,1394329,30233,26016,718363,11385,4011,299449,446200,39082,79134,330339,377791,708130,1575774,387809,1963583,1159156,616431,416449,286365,72374,238203,395069,401189,422876,392909,Punjab,Jalandhar,31.250336907216507,75.54400350515463,915.4461492249027,73.96719532820627
38,PUNJAB,1586625,809057,777568,1199699,637927,561772,557504,0,499822,412506,87316,411011,88811,1086803,1000743,23089,14968,538208,3476,2034,201675,319930,13747,34328,422673,128592,551265,1227466,294723,1522189,831741,422782,330671,227316,33720,166862,278411,285904,285730,210621,Punjab,Hoshiarpur,31.55157169811319,75.8469857442349,961.0793800684006,75.61326715512487
40,PUNJAB,600163,320795,279368,426033,238696,187337,192493,0,214783,182777,32006,192845,21938,385380,152851,16808,1698,427521,48,178,64037,113683,5138,14294,117559,57337,174896,432310,142314,574624,321018,166781,111028,84834,18239,63700,98401,98080,104467,99858,Punjab,Fatehgarh Sahib,30.64290947368421,76.36208394736842,870.8614535762714,70.98621541147988
41,PUNJAB,3498739,1867816,1630923,2560225,1428348,1131877,923358,0,1284822,1053600,231222,1138654,146168,2213917,1502403,77713,16517,1863408,2007,19620,488757,703624,58589,123400,395032,641789,1036821,2372099,631980,3004079,1901528,980046,614258,461137,120172,360662,606726,604959,669232,667902,Punjab,Ludhiana,30.76596397379912,75.83110851528383,873.1711260638093,73.17564985556224
42,PUNJAB,995746,525920,469826,627889,348549,279340,363417,0,359172,292379,66793,304880,54292,636574,158414,9388,3277,818921,178,436,89445,183396,7897,21662,214295,74144,288439,638000,306336,944336,535408,258826,194768,140084,26253,85167,155841,152610,171503,167596,Punjab,Moga,30.756540067340065,75.1600845117845,893.3411925768178,63.057145095235136
43,PUNJAB,2029074,1071637,957437,1227511,707070,520441,855726,0,756695,596406,160289,618362,138333,1272379,906408,6844,19358,1090815,454,1143,141899,349662,10042,31070,348522,153868,502390,1207928,714869,1922797,1171770,525459,331259,237901,37105,148610,290671,277615,303760,274015,Punjab,Firozpur,30.63407535211269,74.40245732394365,893.434063960091,60.49611793359927
44,PUNJAB,901896,475622,426274,524848,300401,224447,381554,0,335326,272699,62627,287205,48121,566570,254920,4333,1681,638625,240,744,76441,166585,4571,14077,149507,74650,224157,544427,340886,885313,495167,242628,162297,109666,23185,62205,135144,130482,152188,133635,Punjab,Muktsar,30.31243303303303,74.5518747747748,896.2453376841273,58.19384940170485
45,PUNJAB,617508,326671,290837,381285,215767,165518,240328,0,221555,185049,36506,190415,31140,395953,141363,3125,1227,469789,155,1109,62103,113549,4348,12276,99946,58917,158863,373752,204895,578647,336540,164962,113721,82761,15528,51638,95758,93053,107033,99988,Punjab,Faridkot,30.591187250996025,74.79751553784862,890.3055367632878,61.745758759400694
46,PUNJAB,1388525,743197,645328,844868,488261,356607,450473,0,549986,432988,116998,452678,97308,838539,380569,16299,2474,984286,246,1266,118427,255650,11284,32253,218159,137563,355722,793380,438529,1231909,754927,377707,255283,176384,36173,106010,215302,204051,241449,232629,Punjab,Bathinda,30.190524611973352,75.05685898004438,868.313515797292,60.84643776669487
47,PUNJAB,769751,408732,361019,423560,244037,179523,258878,0,328512,230739,97773,247175,81337,441239,156539,10375,917,598443,123,1577,39414,140099,2673,10085,145603,50786,196389,434158,311513,745671,420050,200882,146103,90845,12805,48117,111889,102314,128019,99571,Punjab,Mansa,29.919547714285724,75.4304922857143,883.2658074239355,55.025586196055606
48,PUNJAB,1895686,1002522,893164,1266791,711052,555739,465359,0,660267,549661,110606,570391,89876,1235419,783306,40043,5683,1059944,245,1914,209192,352929,24274,55105,299279,218090,517369,1280816,518772,1799588,1042519,517079,335100,253101,57008,193945,303548,308440,327085,309524,Punjab,Patiala,30.214540380693364,76.27505893949697,890.9171070560049,66.82493830729351
49,PUNJAB,2490656,1318408,1172248,1684770,932981,751789,770864,0,917856,735195,182661,787254,130602,1572800,690939,12502,54344,1716935,876,3152,279993,461231,29961,63864,275477,385476,660953,1485800,540010,2025810,1384987,667193,436496,286368,56185,225063,379572,413460,430958,379230,Punjab,Amritsar,31.548679820627772,74.79883856502238,889.1390222146711,67.6436248120977
51,PUNJAB,684627,357485,327142,502731,278534,224197,180905,0,233676,186910,46766,194209,39467,450951,304481,14492,2094,361045,118,653,67749,129123,6600,17542,148162,60537,208699,492696,124100,616796,365300,185424,131707,95548,17248,72313,114425,111937,114310,88385,Punjab,Rupnagar,30.910937330754347,76.53743500967126,915.1209141642307,73.43137211941685
53,PUNJAB,1655169,878029,777140,1002077,570413,431664,461609,0,568758,485129,83629,499792,68966,1086411,389410,179116,2406,1077438,268,3222,135280,305557,10736,30955,292156,156788,448944,1054379,570103,1624482,904316,435148,311621,240629,35264,146931,252535,244837,282915,259912,Punjab,Sangrur,30.185045204336895,75.89437014178496,885.0960503582455,60.54227695177955
55,CHANDIGARH,1055450,580663,474787,805438,465346,340092,199086,0,404136,328159,75977,385929,18207,651314,852574,51447,8720,138329,1160,1960,168344,231204,44283,78113,8911,289456,298367,731491,184265,915756,602411,303748,148945,135055,60494,109701,209783,193932,210801,206017,Chandigarh,Chandigarh,30.7426,76.75872465753424,817.6636017793454,76.31228385996495
56,UTTARAKHAND,330086,168597,161489,215126,128237,86889,80567,3512,157276,84265,73011,128367,28909,172810,324859,3554,353,167,563,74,21374,52621,602,4104,112148,9061,121209,213460,83896,297356,202426,75997,51245,1353,1637,4046,43020,29400,36136,29106,Uttaranchal,Uttarkashi,30.968958552036234,78.56880615384617,957.8402937181563,65.17271256581618
57,UTTARAKHAND,391605,193991,197614,280556,155395,125161,79317,12260,180940,93832,87108,115115,65825,210665,385818,4395,428,323,190,11,27853,71524,899,5582,163434,22906,186340,293196,61950,355146,229715,93182,67873,861,2516,2311,59079,46579,46547,45572,Uttaranchal,Chamoli,30.58338611464965,79.56281095541402,1018.6761241500894,71.6425990475096
59,UTTARAKHAND,618931,297986,320945,407994,227406,180588,102130,875,280442,140821,139621,165912,114530,338489,609835,7374,656,290,32,91,50929,117239,1366,7831,227059,27177,254236,436261,133013,569274,368324,139371,109998,3876,4324,9697,98205,68294,78515,74477,Uttaranchal,Tehri Garhwal,30.463700918635173,78.48783792650917,1077.047243830247,65.91914122898999
62,UTTARAKHAND,483439,239306,244133,345550,189623,155927,120378,19535,216490,113539,102951,145481,71009,266949,475105,6015,1401,260,185,13,45365,95421,1344,7932,183687,26256,209943,371448,88036,459484,273494,116749,92517,1600,3008,6136,67332,58954,58037,61543,Uttaranchal,Pithoragarh,30.14720631868129,80.34229230769236,1020.1708273089685,71.47747699296086
63,UTTARAKHAND,259898,124326,135572,179483,97546,81937,72061,1982,123638,58708,64930,78085,45553,136260,257509,1440,397,46,102,7,13352,47083,435,3595,96031,3880,99911,199825,49539,249364,147488,60569,51672,975,1149,2005,35364,25873,28198,31604,Uttaranchal,Bageshwar,29.98703393393397,79.83954354354357,1090.4557373357143,69.0590154599112
64,UTTARAKHAND,622506,291081,331425,436497,231604,204893,150995,1281,298211,142460,155751,201078,97133,324295,611250,7752,1895,256,201,31,40199,109876,1830,9858,260056,21082,281138,495882,109556,605438,351595,141238,128994,2673,3396,6719,98610,70237,77118,76958,Uttaranchal,Almora,29.683532133676103,79.50165064267351,1138.6005957104724,70.11932415109253
65,UTTARAKHAND,259648,131125,128523,177726,102015,75711,47383,1339,99566,60427,39139,62698,36868,160082,249563,8693,870,336,24,28,18785,37725,548,3159,85202,12839,98041,188383,62429,250812,156916,60722,41913,7523,1387,5151,31466,22588,24002,24284,Uttaranchal,Champawat,29.29142393939393,80.07720212121217,980.1563393708293,68.44882302193739
67,UTTARAKHAND,1648902,858783,790119,1037839,598525,439314,238264,123037,591458,444578,146880,450762,140696,1057444,1104452,372267,6064,162768,505,738,116576,254802,7883,28053,269406,145253,414659,1120419,438598,1559017,1042614,392370,212223,194624,16841,88369,228966,192243,207469,207848,Uttaranchal,Udham Singh Nagar,29.02779577677222,79.45629004524895,920.0449939041644,62.94121785284996
69,HARYANA,561293,299679,261614,405318,229862,175456,101830,0,211479,164865,46614,182831,28648,349814,490702,23451,2583,40951,1008,1626,69687,103455,18615,32174,70895,93656,164551,388559,119222,507781,309078,157076,93606,42737,29497,49972,92486,88378,94560,77967,Haryana,Panchkula,30.700897142857134,76.97173238095236,872.9807560756676,72.2114831291322
70,HARYANA,1128350,598703,529647,818025,461288,356737,296246,0,372139,320120,52019,319475,52664,756211,955096,22143,3705,138202,381,4845,121622,199681,12899,32767,175365,139891,315256,793235,222031,1015266,617859,308126,201685,133676,26122,92424,170149,172034,186183,142922,Haryana,Ambala,30.3503672316384,76.94970310734456,884.6573342709156,72.49745203172775
72,HARYANA,964655,510976,453679,646893,370828,276065,215128,0,336780,268556,68224,285904,50876,627875,805175,15970,1943,140395,214,375,90150,171908,7356,21951,203553,88268,291821,642789,266638,909427,552034,250830,160216,107683,20261,73765,145855,143316,152922,136321,Haryana,Kurukshetra,30.05652659846548,76.78774680306903,887.8675319388778,67.05951868802836
73,HARYANA,1074304,571003,503301,646529,385782,260747,247513,0,373899,292696,81203,290663,83236,700405,974520,8232,1769,87558,265,351,62668,187349,3724,15301,231091,75696,306787,662470,369869,1032339,630194,265813,176320,95704,12792,59238,153352,140195,153556,126896,Haryana,Kaithal,29.96068539094649,76.37698930041155,881.4331973737442,60.18119638389133
74,HARYANA,1505324,797712,707612,978013,564516,413497,339604,0,516062,411646,104416,411533,104529,989262,1341002,31650,2049,126207,532,1516,143133,267223,11163,29253,292682,135920,428602,1004186,429220,1433406,884972,380409,234684,143754,26238,108101,215865,215813,238149,215989,Haryana,Karnal,29.703200647249204,76.87488025889972,887.0519686302825,64.97026553751883
75,HARYANA,1205437,646857,558580,786599,464136,322463,206213,0,412318,328667,83651,339016,73302,793119,1083936,86622,2261,25064,289,4647,121846,209965,10024,26719,173502,153804,327306,752884,296212,1049096,739075,298764,167244,90548,17466,74923,172677,162321,191098,176766,Haryana,Panipat,29.34352134146342,76.92895914634147,863.52934265224,65.25426048810515
77,HARYANA,1334152,713006,621146,832758,502049,330709,282351,0,523422,368277,155145,385851,137571,810730,1276669,23016,889,29103,172,2594,78386,222462,5263,23750,278335,89665,368000,815843,419624,1235467,784085,335704,213478,113068,15836,61694,193577,160742,186317,146428,Haryana,Jind,29.45149821958457,76.29598575667653,871.1651795356561,62.41852502563427
78,HARYANA,942011,495360,446651,557578,327471,230107,284357,0,369083,263498,105585,286258,82825,572928,779243,8360,996,150969,171,1172,51693,153301,3210,13142,203020,55360,258380,542399,344534,886933,555745,237009,147469,86268,14030,52633,136196,107042,152219,134586,Haryana,Fatehabad,29.57298318584072,75.54608716814157,901.6694928940568,59.19017930788494
79,HARYANA,1295189,682582,612607,782897,456968,325929,387381,0,502003,369462,132541,399169,102834,793186,940255,9524,2186,338962,370,2256,70538,215527,6287,22706,245476,93316,338792,792628,412353,1204981,750228,334344,208185,117760,24468,75692,190983,150315,216307,215371,Haryana,Sirsa,29.63583446327684,74.90970480225988,897.4848443117456,60.446544867196984
80,HARYANA,1743931,931562,812369,1114311,670200,444111,408785,0,691621,488321,203300,531227,160394,1052310,1701061,21650,1945,12270,334,3620,110495,285004,10132,33400,302013,154113,456126,1093767,505251,1599018,1017830,456536,265109,147721,24642,90721,259276,202588,273915,231144,Haryana,Hisar,29.23628731117825,75.84324682779452,872.05038419343,63.89650737328484
81,HARYANA,1634445,866672,767773,1069871,643158,426713,341162,0,623006,430678,192328,445675,177331,1011439,1611031,15515,873,2401,254,1016,88938,266244,5292,25236,357047,99235,456282,1093788,459364,1553152,964960,405760,261428,99232,16793,66069,242718,176336,241914,175689,Haryana,Bhiwani,28.728868064516128,76.02110225806452,885.8864714678679,65.45775477302693
82,HARYANA,1061204,568479,492725,747582,436025,311557,216889,0,345967,272646,73321,288949,57018,715237,1043887,8185,732,3916,200,3491,94633,193120,8482,27225,175203,131739,306942,808357,248795,1057152,605741,269354,185685,91682,16545,63575,160621,150160,174390,147990,Haryana,Rohtak,28.892517647058817,76.53123235294117,866.7426589196787,70.44658708410448
83,HARYANA,958405,514667,443738,676091,399480,276611,170448,0,326534,250020,76514,246457,80077,631871,945693,8247,734,1042,105,645,70149,168558,5034,19241,211816,78328,290144,627288,201028,828316,549975,245095,162356,69952,14298,52868,145032,128007,153834,123545,Haryana,Jhajjar,28.59651868131869,76.61137142857145,862.1846747508583,70.5433506711672
84,HARYANA,922088,486665,435423,630255,380440,249815,156314,0,338584,232935,105649,212402,126182,583504,913251,5660,301,1737,75,644,45359,135455,2624,13908,223726,44216,267942,654072,245602,899674,530000,229392,161258,54810,8538,45775,133653,88012,113329,74605,Haryana,Mahendragarh,28.1352161458333,76.14018072916659,894.7078585885569,68.35085154562255
85,HARYANA,900332,474335,425997,636947,375453,261494,182606,0,337727,235326,102401,250219,87508,562605,889133,5713,701,1804,202,1525,62667,152651,5121,18092,199449,69305,268754,635173,206827,842000,518747,230704,150557,71366,12161,58897,137152,108753,134804,100436,Haryana,Rewari,28.19164714828897,76.55956007604564,898.0931198414622,70.74579155244955
86,HARYANA,1514432,816690,697742,1111116,638666,472450,197937,0,544716,432456,112260,487441,57275,969716,1408801,70842,9725,15097,944,7451,238359,305751,67087,102343,141703,381988,523691,1123831,263720,1387551,875531,428101,210307,103261,92934,131478,274931,248024,290709,271169,Haryana,Gurgaon,28.043894789579163,77.01935130260523,854.3535490822711,73.3684972319655
88,HARYANA,1809733,966110,843623,1272739,734940,537799,223799,0,579229,476933,102296,495316,83913,1230504,1588407,161680,9743,34572,640,4883,258422,333171,43437,82673,87700,382981,470681,1306146,346567,1652713,1095602,481318,231029,170927,63470,152884,302937,279652,313812,296399,Haryana,Faridabad,28.14873109756098,77.32718536585368,873.2163004212771,70.32744609287668
93,NCT OF DELHI,1709346,907500,801846,1352998,748382,604616,281422,0,579692,486951,92741,555026,24666,1129654,1410852,178807,15792,53027,2643,46927,327253,352758,80037,127465,1086,461132,462218,1334283,169693,1503976,948963,497157,262124,103064,87499,162670,329844,320151,333378,331089,Sikkim,East,27.29600352941175,88.74908392156858,883.5768595041322,79.15296259505097
99,RAJASTHAN,1969168,1043340,925828,1193343,710908,482435,720412,13477,912672,596320,316352,680563,232109,1056496,1437144,50688,2077,474853,938,1988,88543,283142,6295,24901,397697,164897,562594,1181845,710223,1892068,1167889,502211,283484,149905,21515,85320,284669,181616,332389,316783,Rajasthan,Ganganagar,29.256785412667963,73.56192303262948,887.3694097801292,60.6013808877658
100,RAJASTHAN,1774692,931184,843508,1034136,624281,409855,494189,14289,835260,512802,322458,642109,193151,939432,1433067,118673,1542,216997,241,1935,55515,243163,3360,16217,389059,108694,497753,1088552,723454,1812006,1058044,453114,242361,93418,16537,56973,249474,140280,278085,278373,Rajasthan,Hanumangarh,29.1813351791531,74.74632573289902,905.8446021409302,58.271294399253506
101,RAJASTHAN,2363937,1240801,1123136,1278801,782399,496402,493646,7779,986208,640572,345636,752768,233440,1377729,2073356,235741,1901,20072,285,30850,108812,220793,7607,29531,335754,196179,531933,1341957,1015331,2357288,1543867,517271,288165,97914,17113,68379,287946,138480,301031,195188,Rajasthan,Bikaner,28.12489068322981,73.26943322981371,905.170128006022,54.09623860534354
102,RAJASTHAN,2039547,1051446,988101,1149269,696729,452540,451721,11245,902829,541404,361425,628381,274448,1136718,1777879,249736,958,402,188,7104,74197,231696,2577,15259,344897,148996,493893,1228712,910226,2138938,1293193,458725,272176,46531,9938,27698,268431,131174,268120,200805,Rajasthan,Churu,28.29330375536484,74.65846427038629,939.7543953755114,56.34922852966859
103,RAJASTHAN,2137045,1095896,1041149,1370360,815834,554526,360709,41629,894649,541392,353257,592813,301836,1242396,1905682,228178,1004,275,56,548,131987,297559,4828,24178,500452,150357,650809,1536668,712584,2249252,1298780,494124,330126,74695,15861,59920,314807,189511,297078,205571,Rajasthan,Jhunjhunun,28.13517401247401,75.52840893970894,950.0436172775519,64.12405915645202
104,RAJASTHAN,3674179,1939026,1735153,2182476,1359829,822647,653036,289249,1708542,994171,714371,1179461,529081,1965637,3039279,547335,2696,64532,4384,13221,123478,485723,9750,45770,782294,212967,995261,2262867,1384905,3647772,2346721,836000,490137,242678,30207,179435,477446,258862,330836,172919,Rajasthan,Alwar,27.55271738035265,76.65359630562563,894.8580369732019,59.40037216477477
105,RAJASTHAN,2548462,1355726,1192736,1480869,943910,536959,557305,54090,1071154,647198,423956,694929,376225,1477308,2143046,371286,1576,23456,899,5758,61113,288723,4179,26106,479437,129697,609134,1524305,1104824,2629129,1659515,546362,329127,152915,10349,99846,303255,160190,198184,85903,Rajasthan,Bharatpur,27.32411858037578,77.21752077244258,879.7765920252323,58.108341423179944
106,RAJASTHAN,1206516,653647,552869,683098,435721,247377,245695,58594,523212,339110,184102,317617,205595,683304,1127520,72258,688,1356,92,2739,24561,96086,1330,9504,214670,58626,273296,682444,552106,1234550,815651,248416,141365,80614,3614,31120,117770,51423,77503,33172,Rajasthan,Dhaulpur,26.72397054945053,77.74476219780222,845.821980365549,56.617400846735556
107,RAJASTHAN,1458248,783639,674609,805849,531904,273945,354465,324960,628726,371058,257668,438337,190389,829522,1370977,81553,602,297,70,3424,28296,132079,1059,13045,305047,59308,364355,840673,668926,1509599,947173,310688,192042,52008,3820,35486,166652,49752,69366,41754,Rajasthan,Karauli,26.51901555555556,76.96081818181815,860.8670574078116,55.26145072717398
108,RAJASTHAN,1335551,704031,631520,741748,486184,255564,278789,285848,578068,343802,234266,418555,159513,757483,1165505,155681,945,812,177,9991,40116,140947,1887,14310,282057,71264,353321,759711,586492,1346203,841697,309237,183234,66594,4398,41953,171024,61935,81379,52475,Rajasthan,Sawai Madhopur,26.251081180223288,76.4219283891548,897.005955703655,55.53872521528568
109,RAJASTHAN,1634409,857787,776622,938051,596935,341116,354337,433344,684495,398151,286344,506214,178281,949914,1582335,45488,439,296,94,3737,35600,195277,1719,14539,361084,59610,420694,1005436,681980,1687416,1047136,358718,210117,84799,6664,62106,202591,82113,85330,50480,Rajasthan,Dausa,26.91234817629181,76.57342097264443,905.378607976106,57.39389589753849
110,RAJASTHAN,6626178,3468507,3157671,4300965,2554793,1746172,1003302,527966,2464893,1714947,749946,2060010,404883,4161285,5819980,687452,12708,18782,1020,81079,570997,990085,76565,182350,754841,977838,1732679,4433665,2046038,6479703,4091148,1646480,884057,393025,142866,523398,974168,764302,816767,694107,Rajasthan,Jaipur,27.033459290187885,75.77117286012533,910.3833436115308,64.90868491610095
111,RAJASTHAN,2677333,1374990,1302343,1652117,995275,656842,418806,75349,1006504,657854,348650,698711,307793,1670829,2342076,327583,1122,356,177,4050,131342,339457,5647,28382,527560,178274,705834,1859871,967497,2827368,1672813,605002,381226,76325,22494,77340,384989,218772,328313,222955,Rajasthan,Sikar,27.64644058641976,75.29317422839503,947.1654339304287,61.7075649536311
112,RAJASTHAN,3307743,1696325,1611418,1758624,1102750,655874,699911,10418,1425882,857031,568851,985927,439955,1881861,2833443,454487,1912,366,163,12940,97267,347344,4449,35328,675712,166489,842201,1910801,1533137,3443938,2088323,754143,463469,90046,26150,94315,465022,184518,393528,209311,Rajasthan,Nagaur,27.07862016048146,74.14215667001012,949.9465019969641,53.16688751211929
113,RAJASTHAN,3687165,1923928,1763237,2031532,1265753,765779,608024,118924,1489741,965103,524638,1056479,433262,2197424,3224399,411558,6035,4123,514,36697,197135,408808,19335,54808,584215,307442,891657,2036941,1591957,3628898,2359786,836322,489280,193641,40768,197296,491165,246002,481462,248676,Rajasthan,Jodhpur,26.678460838536967,73.00450847457628,916.4776436540245,55.09739867893083
114,RAJASTHAN,669919,361708,308211,308653,210415,98238,99134,42429,288903,182565,106338,175383,113520,381016,497045,168129,874,1723,98,1521,12431,43141,754,7416,159117,30830,189947,267105,397649,664754,448969,140294,79977,11291,5218,11355,81102,19388,79428,26456,Rajasthan,Jaisalmer,26.86900838548185,71.18371877346682,852.0989306291262,46.07318198170226
115,RAJASTHAN,2603751,1369022,1234729,1188322,783461,404861,436414,176257,1202482,696240,506242,741367,461115,1401269,2244882,321192,1157,450,157,34010,39580,126494,2766,37730,542825,55980,598805,1179796,1501858,2681654,1731122,527629,326476,47366,27009,39804,299183,52926,234694,66597,Rajasthan,Barmer,25.77070908045978,71.50297126436782,901.905886099712,45.63884949060029
116,RAJASTHAN,1828730,936634,892096,829582,543923,285659,357196,178719,896644,494906,401738,660719,235925,932086,1732852,78990,730,231,144,14640,39745,161845,1585,12794,419216,48202,467418,870570,1033534,1904104,1176496,390598,249379,37596,12367,34799,237522,54245,145214,51153,Rajasthan,Jalor,25.07578093797277,72.18647261724662,952.4488754412076,45.36383173021715
117,RAJASTHAN,1036346,534231,502115,476806,309900,166906,201863,292470,419829,272196,147633,313292,106537,616517,996562,30479,1284,572,114,6829,47182,134089,2146,10297,238535,69639,308174,497001,577092,1074093,649290,244401,142251,52893,6343,38817,125006,65197,91080,54218,Rajasthan,Sirohi,24.7976905263158,72.75309131578943,939.8836832755868,46.008379440843115
118,RAJASTHAN,2037573,1025422,1012151,1085693,667381,418312,398096,144578,842327,523077,319250,605288,237039,1195246,1870543,143476,1345,1540,141,18974,94821,326793,4043,19270,512909,139808,652717,1216936,983050,2199986,1207983,467436,343384,175945,14175,109098,316935,154761,274998,124303,Rajasthan,Pali,25.80490393541874,73.55285640766907,987.0580112383,53.28363695435697
119,RAJASTHAN,2583052,1324085,1258967,1526673,926268,600405,478027,63482,1053722,686149,367573,827181,226541,1529330,2201663,314159,10605,6799,417,45614,171799,393498,13499,41732,409335,274919,684254,1618919,1034334,2653253,1561077,629951,388040,187324,24509,175460,363250,250461,305048,204571,Rajasthan,Ajmer,26.199300378787903,74.6990419191919,950.8203778458331,59.10345591184382
120,RAJASTHAN,1421326,728136,693190,749659,478329,271330,287903,178207,649161,371848,277313,495797,153364,772165,1243527,153146,754,378,122,22458,32359,158264,1908,12482,298911,81755,380666,816124,661902,1478026,880194,334006,205593,93547,6295,68174,189703,83447,92778,49974,Rajasthan,Tonk,26.153935071707927,75.79192216427637,952.0062186184999,52.743635168849366
121,RAJASTHAN,1110906,577160,533746,585044,371705,213339,210788,228549,526091,314806,211285,361070,165021,584815,1017688,66609,682,11059,144,13455,33406,136969,1392,7705,239836,63452,303288,585809,553622,1139431,686771,267648,155958,86810,5787,58255,143433,78692,77636,42082,Rajasthan,Bundi,25.48580716049379,75.79984074074079,924.7799570309793,52.66368171564471
122,RAJASTHAN,2408523,1220736,1187787,1256126,777582,478544,407947,229273,1148165,674589,473576,883329,264836,1260358,2224839,142427,1978,1468,183,35149,93768,373644,6207,24014,530015,145865,675880,1347909,1180456,2528365,1439454,589476,365023,212245,17508,150972,341043,175393,231845,115740,Rajasthan,Bhilwara,25.45119767759564,74.63947595628417,973.0089061025479,52.15337366510513
123,RAJASTHAN,1156597,581339,575258,619139,383334,235805,148168,160809,550831,319534,231297,362584,188247,605766,1105676,33677,759,260,100,14966,36073,193276,1989,9222,304622,61054,365676,674367,544517,1218884,687165,275099,193668,65503,7060,62714,168164,80267,105451,49135,Rajasthan,Rajsamand,25.24894767441859,73.96570215946844,989.5396661844466,53.53109164211908
124,RAJASTHAN,1388552,696532,692020,681591,415820,265771,52267,983437,641515,346624,294891,216411,425104,747037,1340065,28662,830,240,226,16141,26351,141275,1477,11742,322816,31547,354363,675840,764563,1440403,868458,317700,191917,18435,4385,34909,115373,46510,62463,38043,Rajasthan,Dungarpur,23.75104807692308,73.84765641025645,993.5221928066478,49.086458411352254
125,RAJASTHAN,1797485,907754,889731,829343,513854,315489,80091,1372999,916574,482236,434338,542983,373591,880911,1701234,48834,22250,427,138,22613,34189,120603,2324,15062,390437,39407,429844,748794,1040914,1789708,1153029,406214,216554,39865,5287,45930,108760,48693,72390,45574,Rajasthan,Banswara,23.453642032967014,74.44246868131869,980.1455019752048,46.13907765572453
126,RAJASTHAN,1544338,783171,761167,821825,514851,306974,250224,201546,802755,456632,346123,656904,145851,741583,1413163,97855,1274,1515,252,25843,59190,268172,4941,16560,366780,88873,455653,868699,715545,1584244,880043,398303,258997,173375,11261,103489,223599,119801,138788,67820,Rajasthan,Chittaurgarh,24.631623761665463,74.80010997846382,971.903964779084,53.215358295917085
127,RAJASTHAN,1951014,1021161,929853,1298345,765396,532949,405408,183816,748811,534650,214161,577548,171263,1202203,1661307,243993,5665,11058,280,25742,165563,339899,12843,36297,203454,311735,515189,1317870,588142,1906012,1177474,495896,275396,150716,24848,147206,283909,236764,265337,195286,Rajasthan,Kota,25.175718080000014,76.18618928000001,910.5841292411285,66.5471903328218
128,RAJASTHAN,1222755,633945,588810,693307,432607,260700,221184,276857,552583,329754,222829,359785,192798,670172,1133349,79984,1432,3066,84,2795,32685,161310,1363,9491,249184,69804,318988,722755,545842,1268597,762204,286344,173100,61129,5741,59954,150412,88344,92962,42258,Rajasthan,Baran,24.98023243243244,76.86210651828291,928.8029718666446,56.70040196114512
129,RAJASTHAN,1411129,725143,685986,739792,466815,272977,243582,182229,685950,402825,283125,475653,210297,725179,1299751,96164,842,819,46,12488,38909,220428,1750,9403,298624,63763,362387,747822,696680,1444502,850546,346110,213674,81160,5385,56052,167020,96225,110586,46984,Rajasthan,Jhalawar,24.24725541474657,76.11242891705065,946.0009956656825,52.42554011716859
130,RAJASTHAN,3068420,1566801,1501619,1582629,973444,609185,188525,1525289,1365783,835839,529944,822355,543428,1702637,2869976,104307,7406,4278,209,78647,128320,357846,14211,48517,665449,182769,848218,1535470,1528671,3064141,1876436,739287,451034,145780,27979,157259,330546,180282,223077,150738,Rajasthan,Udaipur,24.44076752136749,73.84029839743584,958.3980352322982,51.57797824287418
131,RAJASTHAN,867848,437744,430104,401515,250122,151393,60429,550427,481294,251691,229603,327445,153849,386554,827293,25597,358,72,32,14077,17984,71612,716,5961,209813,24269,234082,402948,488621,891569,545987,204801,115608,62048,2803,31782,78345,37216,42404,20284,Uttar Pradesh,Pratapgarh,25.864842731707316,81.93530048780492,982.5468767133302,46.26559028770015
132,UTTAR PRADESH,3466382,1834106,1632276,2077108,1220114,856994,764450,980,1037344,911136,126208,882701,154643,2429038,1966892,1454052,6523,18627,1937,10208,149035,404499,9699,38816,605082,284156,889238,2090428,1279517,3369945,2228689,769736,433862,365960,21310,151620,419470,294410,468873,343084,Uttar Pradesh,Saharanpur,30.03381165217392,77.59905147826095,889.9572870924582,59.92149739988264
133,UTTAR PRADESH,4143512,2193434,1950078,2417339,1448528,968811,561250,317,1291644,1081569,210075,1085491,206153,2851868,2382914,1711453,6495,18601,1516,16345,147785,368153,10077,56149,673746,296104,969850,2673586,1431537,4105123,2671757,911621,544283,377807,32866,145278,512592,331760,553728,449383,Uttar Pradesh,Muzaffarnagar,29.470507977736563,77.64017847866423,889.0525085322831,58.34034027173084
134,UTTAR PRADESH,3682713,1921215,1761498,2135393,1241471,893922,787444,3058,1088036,921497,166539,839778,248258,2594677,2032081,1585210,6184,50624,1736,2134,128042,268353,7303,37341,683875,224648,908523,2453411,1308683,3762094,2404576,786305,450186,378636,17143,131278,445114,260312,470279,380737,Uttar Pradesh,Bijnor,29.313974259681096,78.45098815489754,916.8666703101943,57.984236078130444
135,UTTAR PRADESH,4772006,2503186,2268820,2263848,1357435,906413,731406,685,1417811,1193439,224372,1104968,312843,3354195,2488265,2248392,13157,7555,1260,2426,179473,281758,11690,61846,692398,355518,1047916,2545795,2097292,4643087,3168270,988486,525574,399563,19316,148802,504670,283005,532409,496107,Uttar Pradesh,Moradabad,28.851770406189537,78.73580193423597,906.3729183528511,47.44017505426439
136,UTTAR PRADESH,2335819,1223889,1111930,1043666,630408,413258,307936,358,737261,609693,127568,564266,172995,1598558,1073890,1181337,9201,65316,384,1307,62281,131112,3847,25960,396775,143217,539992,1008445,1235413,2243858,1576123,491164,258913,247366,14386,73261,253787,134249,254563,260618,Uttar Pradesh,Rampur,28.83244727272725,79.10977333333337,908.5219329530701,44.68094488485623
137,UTTAR PRADESH,1840221,963449,876772,983110,600541,382569,318001,164,599089,459037,140052,453567,145522,1241132,1075440,750368,5952,5295,189,517,55064,89329,2825,18303,335888,115486,451374,1233732,520215,1753947,1227283,391275,215849,167023,7361,63056,206663,101804,205042,166582,Uttar Pradesh,Jyotiba Phule Nagar,28.870498984771597,78.39009365482241,910.0346774972002,53.42347468048675
138,UTTAR PRADESH,3443689,1825743,1617946,2141488,1254520,886968,624149,3390,1090539,898810,191729,890810,199729,2353150,2183255,1185643,10582,24912,1855,18544,236071,425624,23717,69473,381520,422303,803823,2302997,990312,3293309,2165117,780475,451827,331961,42392,186553,440962,354359,497784,421643,Uttar Pradesh,Meerut,29.02957625698323,77.80611005586593,886.1849668874535,62.18587102377712
139,UTTAR PRADESH,1303048,700070,602978,797970,489858,308112,149060,14,416695,342604,74091,334519,82176,886353,917474,364583,1840,483,161,16139,44732,119121,2989,19999,246055,69991,316046,887221,376700,1263921,817140,283276,194548,114603,13301,42998,155781,111663,171586,134051,Uttar Pradesh,Baghpat,29.045793499999988,77.30266300000001,861.3110117559672,61.23872643218055
140,UTTAR PRADESH,4681645,2488834,2192811,3123264,1811397,1311867,773463,3968,1520538,1231615,288923,1252911,267627,3161107,3414427,1186776,19026,23001,3487,16412,501592,695130,78116,179552,355407,836316,1191723,3545813,885070,4430883,2891069,1139871,559963,409265,119441,292502,700485,592753,750601,701900,Uttar Pradesh,Ghaziabad,28.74997308584685,77.67441879350343,881.0595644386085,66.71296093573946
141,UTTAR PRADESH,1648115,890214,757901,1122947,666065,456882,216105,2215,569109,443384,125725,458492,110617,1079006,1394025,215500,7366,9261,895,4518,193902,257586,53181,87188,170835,338935,509770,1335017,342284,1677301,1015648,402967,188862,128362,78631,124939,278982,232925,276925,245877,Uttar Pradesh,Gautam Buddha Nagar,28.393311038961038,77.52462467532465,851.369445998378,68.13523328165813
142,UTTAR PRADESH,3499171,1845260,1653911,2031656,1253314,778342,725600,198,1173260,897815,275445,885216,288044,2325911,2707195,777407,4088,2765,669,1572,124641,223922,7865,38225,658449,221628,880077,2184539,1185318,3369857,2246254,753949,472808,321044,20979,136765,410624,254050,393105,257848,Uttar Pradesh,Bulandshahr,28.34875862068968,78.01082758620684,896.3024180874239,58.0610664640282
143,UTTAR PRADESH,3673889,1951996,1721893,2092567,1283380,809187,755254,629,1174361,929337,245024,865799,308562,2499528,2904140,729283,7635,5875,2582,2805,153283,268120,13634,58336,582117,275942,858059,2137251,1352181,3489432,2378289,787408,472667,364661,21667,151973,445913,262098,356823,254141,Uttar Pradesh,Aligarh,27.93748576850093,78.00146831119557,882.1191231949246,56.957817723943215
145,UTTAR PRADESH,2547184,1367125,1180059,1507746,943346,564400,506580,1520,840939,635142,205797,594799,246140,1706245,2310776,216933,3179,2872,883,2056,107867,281239,8726,37596,407488,177802,585290,1571793,691359,2263152,1600686,535738,327854,212964,16580,124260,318989,221574,240390,154472,Uttar Pradesh,Mathura,27.59390432801821,77.62153416856502,863.1683276949803,59.19266138606398
146,UTTAR PRADESH,4418797,2364953,2053844,2680510,1614594,1065916,991325,7255,1389844,1119701,270143,1050562,339282,3028953,3922718,411313,10076,12057,4049,21508,251013,536402,27183,82012,496971,406852,903823,3141380,963202,4104582,2871903,991255,547873,444212,44989,243761,520896,433913,463682,311695,Uttar Pradesh,Agra,26.99512974910393,78.05278291517321,868.4502398144909,60.66153299189803
147,UTTAR PRADESH,2498156,1332046,1166110,1521806,912314,609492,473890,2565,761521,621840,139681,573649,187872,1736635,2140745,314812,3370,1804,3395,19077,100919,196080,5834,31797,349747,185621,535368,1673077,672115,2345192,1621154,543730,312689,278168,10940,85413,283190,169583,237006,146593,Uttar Pradesh,Firozabad,27.20963993055552,78.42660624999998,875.4277254689403,60.91717250644075
148,UTTAR PRADESH,1868529,993377,875152,1203885,712110,491775,368206,478,560840,466067,94773,424782,136058,1307689,1746649,100723,1729,475,8814,4161,43074,79022,2642,24451,338475,72783,411258,1406443,519493,1925936,1193660,402321,265638,216358,7361,53444,209597,76780,158322,72089,Uttar Pradesh,Mainpuri,27.17386862302482,79.03501851015807,880.986775413564,64.42955929503904
150,UTTAR PRADESH,4448359,2357665,2090694,2191759,1342697,849062,557150,3227,1401971,1153006,248965,1043912,358059,3046388,2830768,1536534,14822,28187,4371,931,210687,272830,15164,56575,631613,362798,994411,2409592,1744527,4154119,2893965,952233,514141,456654,24436,159838,481724,300504,428849,462993,Uttar Pradesh,Bareilly,28.51101940789474,79.43187072368416,886.7646591012718,49.271180675840235
151,UTTAR PRADESH,2031007,1072002,959005,1061095,654290,406805,333558,1714,618605,534939,83666,463415,155190,1412402,1449007,489686,3510,84787,360,138,47723,83006,2870,18097,371752,89638,461390,1086632,977839,2064471,1320476,449673,256276,242225,7560,55738,205860,106945,169387,162404,Uttar Pradesh,Pilibhit,28.52024175035868,79.90103974175037,894.5925474019638,52.24477315932441
152,UTTAR PRADESH,3006538,1606403,1400135,1490930,915142,575788,532673,508,892214,783313,108901,699503,192711,2114324,2412595,527581,4630,51090,2312,301,91958,115163,3889,27533,520289,134714,655003,1594486,1324615,2919101,1961237,652237,368743,333199,9927,73581,288372,135885,243864,198260,Uttar Pradesh,Shahjahanpur,27.991389350649328,79.8302275324675,871.5963553354917,49.589594410581206
154,UTTAR PRADESH,4483992,2375264,2108728,2283733,1397702,886031,1446427,1602,1422602,1171252,251350,1023642,398960,3061390,3555450,893725,6579,11611,2663,1410,74072,102040,3874,34609,827583,111319,938902,2347731,2141696,4489427,2862383,1000987,588318,575384,11679,88916,369436,123246,371343,145037,Uttar Pradesh,Sitapur,27.501995963091108,80.85288881199547,887.7867891737508,50.93080005495103
155,UTTAR PRADESH,4092845,2191442,1901403,2221601,1374587,847014,1274505,349,1318946,1091952,226994,969871,349075,2773899,3508131,556219,5822,5688,6671,446,60689,95508,3845,32065,786613,121064,907677,2657604,1481604,4139208,2598364,905306,559988,494925,12396,82094,387803,132969,341739,173556,Uttar Pradesh,Hardoi,27.337409090909137,80.26411767676768,867.6492464778898,54.28011566526463
156,UTTAR PRADESH,3108367,1630087,1478280,1773584,1053063,720521,948588,2926,1124744,851014,273730,761831,362913,1983623,2732016,363453,3574,1204,920,240,70484,99466,3476,28719,596317,121039,717356,1915619,1130103,3045722,1893706,706851,453462,417537,10191,79130,306178,134235,362568,141351,Uttar Pradesh,Unnao,26.63163990895297,80.636773292868,906.8718418096703,57.05838467594078
157,UTTAR PRADESH,4589838,2394476,2195362,3127260,1742440,1384820,948294,7506,1542806,1226399,316407,1152285,390521,3047032,3537787,985070,20493,23883,3877,4975,469747,582769,68506,152257,344155,717566,1061721,3094625,1146880,4241505,2678289,1161686,685258,539667,90205,337254,607420,506413,654614,539863,Uttar Pradesh,Lucknow,26.838233589251463,80.89706026871404,916.8444369457034,68.13443088841044
158,UTTAR PRADESH,3405559,1752542,1653017,1965843,1165965,799878,1030367,1756,1204710,867393,337317,644869,559841,2200849,2975998,413243,3634,2424,722,397,65080,247856,5184,34788,705025,73393,778418,2178952,1286726,3465678,2116007,776583,506583,509053,13483,94437,363829,130197,297883,112567,Uttar Pradesh,Rae Bareli,26.253902840059787,81.22260463378181,943.2110614182142,57.72453215463306
159,UTTAR PRADESH,1885204,1006240,878964,1092677,654827,437850,312712,230,592267,494545,97722,474686,117581,1292937,1596278,276846,3137,3160,3161,487,59209,88081,2624,18733,316647,94843,411490,1277039,710960,1987999,1224584,411153,246795,204261,6765,49592,198066,87314,182879,113500,Uttar Pradesh,Farrukhabad,27.45063297872342,79.4406284574468,873.5132771505804,57.96067693469779
160,UTTAR PRADESH,1656616,881776,774840,1017087,603596,413491,309980,15,524676,430934,93742,419027,105649,1131940,1375788,273967,1263,504,2033,606,32510,61491,2488,18082,299785,65985,365770,1170752,543034,1713786,1069916,361028,223535,178143,6011,37935,174734,64187,157415,85404,Uttar Pradesh,Kannauj,26.993988617886185,79.64437940379408,878.7265700132459,61.3954591770211
161,UTTAR PRADESH,1581810,845856,735954,1062003,623583,438420,388283,169,506072,413713,92359,361588,144484,1075738,1457892,113961,1362,1045,1733,3917,47520,113098,2964,21506,265643,85483,351126,1211214,397708,1608922,979633,362026,237786,194564,7736,47713,177997,84543,166012,93434,Uttar Pradesh,Etawah,26.78817670157068,79.07621806282728,870.0700828509817,67.13846795759288
162,UTTAR PRADESH,1379545,740040,639505,930836,546198,384638,391622,150,442023,364543,77480,325721,116302,937522,1273546,101963,1004,371,332,228,32687,65479,2404,14279,255836,58438,314274,1063360,276224,1339584,856336,320763,202054,179939,5088,35729,152099,60174,150177,72893,Uttar Pradesh,Auraiya,26.66892394014961,79.42637057356607,864.1492351764769,67.47413096346983
163,UTTAR PRADESH,1796184,963255,832929,1170243,692964,477279,460544,801,628864,493991,134873,448651,180213,1167320,1612968,176327,1300,478,819,155,23831,49753,2682,25354,363933,41323,405256,1406418,475166,1881584,1100820,415918,276272,220794,12752,40159,184973,65556,197245,89107,Uttar Pradesh,Kanpur Dehat,26.43047641196011,79.98710083056478,864.7024931093013,65.15162143744739
165,UTTAR PRADESH,1689974,906092,783882,1075196,653430,421766,468178,832,620764,470969,149795,420266,200498,1069210,1509708,171581,1148,463,2875,256,42616,104176,2217,18615,304856,91565,396421,1169557,461666,1631223,1002817,410090,274954,162840,7009,58169,199931,90428,206627,114634,Uttar Pradesh,Jalaun,26.067954587155988,79.36686911314993,865.1240712863595,63.622043889432625
166,UTTAR PRADESH,1998603,1057436,941167,1304513,783705,520808,562505,3873,814914,565357,249557,560041,254873,1183689,1823930,147842,7050,4951,1203,7328,94342,183340,8517,40774,309592,195321,504913,1287584,483088,1770672,1171301,510728,308331,194290,18860,94539,270128,163900,238492,147302,Uttar Pradesh,Jhansi,25.45581535234902,78.89954580536917,890.0463006744617,65.27124196251081
167,UTTAR PRADESH,1221592,641011,580581,641191,397586,243605,240519,71610,503351,326783,176568,357033,146318,718241,1163804,33724,1351,1034,69,20390,20720,77082,1079,9906,258013,43819,301832,674358,509536,1183894,793551,265080,159666,118185,5511,36718,126482,53524,84273,42178,Uttar Pradesh,Lalitpur,24.58877161016945,78.60082330508473,905.727046805749,52.48814661523651
168,UTTAR PRADESH,1104285,593537,510748,653299,408125,245174,241198,474,443655,308527,135128,290375,153280,660630,1010014,91269,814,196,74,41,20175,55929,1196,11037,256081,55300,311381,835920,364848,1200768,660774,260368,181109,99240,3791,24522,137792,48564,120259,68771,Himachal Pradesh,Hamirpur,31.67668481012659,76.49767088607594,860.5158566357278,59.16036168199332
168,UTTAR PRADESH,1104285,593537,510748,653299,408125,245174,241198,474,443655,308527,135128,290375,153280,660630,1010014,91269,814,196,74,41,20175,55929,1196,11037,256081,55300,311381,835920,364848,1200768,660774,260368,181109,99240,3791,24522,137792,48564,120259,68771,Uttar Pradesh,Hamirpur,25.738158381502892,79.82619479768789,860.5158566357278,59.16036168199332
169,UTTAR PRADESH,875958,466358,409600,488106,302283,185823,220898,647,349676,237153,112523,238712,110964,526282,815142,57454,965,389,94,234,12874,42936,1316,11298,198298,48525,246823,526669,403649,930318,527067,201394,137393,85723,5755,21276,113025,35422,70567,41692,Uttar Pradesh,Mahoba,25.34529670138888,79.67863003472216,878.2952152638102,55.72253464207188
170,UTTAR PRADESH,1799410,965876,833534,1002937,630626,372311,387855,163,701689,485314,216375,483232,218457,1097721,1637549,157612,1367,231,168,916,26907,73522,1655,18612,378056,67569,445625,1235531,588025,1823556,1120432,408527,265310,183817,5202,32236,174698,52233,133063,90787,Uttar Pradesh,Banda,25.351885902503284,80.52487391304344,862.9824118209791,55.73699156945888
171,UTTAR PRADESH,991730,527721,464009,531072,330339,200733,266655,366,394197,254977,139220,282614,111583,597533,955372,34559,693,63,101,285,11637,41046,827,9437,207237,23558,230795,616227,383908,1000135,638046,214228,136669,105264,2805,17911,84775,27006,44786,27623,Uttar Pradesh,Chitrakoot,25.159924623803,81.07666087551297,879.2695382598001,53.55005898782935
172,UTTAR PRADESH,2632733,1384722,1248011,1512166,911003,601163,651480,340,1063929,713736,350193,670156,393773,1568804,2274674,350700,2201,402,172,199,43492,75263,3385,33501,558807,77733,636540,1738210,895178,2633388,1624830,603831,395547,331499,16758,59754,271445,97968,211608,117023,Uttar Pradesh,Fatehpur,25.8374362030905,80.85416203090509,901.2718798430299,57.437119525603244
173,UTTAR PRADESH,3209141,1606085,1603056,1931559,1121381,810178,709252,723,1066601,704569,362032,553013,513588,2142540,2731351,452394,3920,1451,7795,746,46358,140538,5149,34400,711085,41701,752786,2231374,1059636,3291010,2002569,703727,492097,447696,15781,104506,397265,135185,186336,74799,Uttar Pradesh,Pratapgarh,25.864842731707316,81.93530048780492,998.1140475130519,60.18928429757371
174,UTTAR PRADESH,1599596,838485,761111,813424,507279,306145,555397,193,639086,402644,236442,415312,223774,960510,1372381,220423,2225,522,687,545,22034,43753,1503,15029,349856,30764,380620,905188,670750,1575938,1034099,336401,210556,210669,4403,35502,154650,52946,92723,46197,Uttar Pradesh,Kaushambi,25.53587532051282,81.41811282051287,907.7216646690161,50.851840089622634
175,UTTAR PRADESH,5954391,3131807,2822584,3665727,2199340,1466387,1309851,7955,2111907,1426110,685797,1286732,825175,3842484,5102041,796756,13782,4377,4391,2247,204357,391542,24122,85491,983266,265304,1248570,4061896,1756098,5817994,3764404,1335224,818137,701941,41965,243219,616743,355913,373803,278760,Uttar Pradesh,Allahabad,25.392038662316445,82.05172446982063,901.2637113334251,61.56342437035123
176,UTTAR PRADESH,3260699,1707073,1553626,1692458,1010518,681940,864559,610,1192850,871241,321609,834294,358556,2067849,2505444,737106,4857,2090,1553,3016,60554,108116,3159,26293,635840,79068,714908,1760720,1540841,3301561,2043335,709494,445269,446335,11935,91664,306578,116157,305263,103904,Uttar Pradesh,Bara Banki,26.922777025232424,81.35762350597606,910.1110497324953,51.90476029832867
177,UTTAR PRADESH,2470996,1259628,1211368,1450901,838339,612562,555047,931,831209,597888,233321,496579,334630,1639787,2094271,365806,3225,1912,737,358,58328,127754,4746,28625,510378,79288,589666,1670696,981915,2652611,1534832,543148,367332,346448,15426,74081,276720,99531,238464,94981,Uttar Pradesh,Faizabad,26.60589185185181,82.00783530864202,961.687101271169,58.71725409510983
178,UTTAR PRADESH,2397888,1212410,1185478,1486939,846676,640263,591125,746,787398,547406,239992,440998,346400,1610490,1985654,401678,2536,869,1817,235,21512,99581,2509,27308,501559,65031,566590,1718855,813502,2532357,1499494,515229,367234,311614,9813,60203,255512,61470,146958,67875,Uttar Pradesh,Ambedkar Nagar,26.39119025974028,82.68282142857147,977.7863923920125,62.010360784156724
179,UTTAR PRADESH,3797117,1914586,1882531,2239902,1300248,939654,851587,696,1242632,869838,372794,690967,551665,2554485,3119590,650261,4453,1629,9989,426,55055,233701,5956,44008,839737,49891,889628,2310783,1118891,3429674,2376875,828222,580164,526011,18382,104307,440274,135697,278962,101900,Uttar Pradesh,Sultanpur,26.2846386419753,82.05710456790123,983.2574770733726,58.9895439092343
180,UTTAR PRADESH,3487731,1843884,1643847,1398368,878285,520083,509307,11159,1152160,895576,256584,743452,408708,2335571,2291892,1169330,6400,8212,2793,1177,38940,85814,2681,35463,698520,61742,760262,1381933,1920966,3302899,2275746,754346,446242,397685,13451,51784,270422,71676,223076,93687,Uttar Pradesh,Bahraich,27.691776300578027,81.46779783237004,891.5132405292306,40.09391779354543
182,UTTAR PRADESH,2148665,1114721,1033944,868357,544943,323414,277212,24887,760253,534332,225921,458727,301526,1388412,1333242,805975,3228,900,1866,198,16229,57400,1551,15510,410070,35768,445838,876131,1332817,2208948,1415213,442339,283947,232350,6167,37816,194750,34497,141528,48201,Uttar Pradesh,Balrampur,27.449076537911324,82.47158326180256,927.5361278741497,40.413791819571685
183,UTTAR PRADESH,3433919,1787146,1646773,1679994,1034181,645813,531973,870,1170552,855848,314704,739663,430889,2263367,2739076,678615,4735,1893,649,338,45517,104084,4313,31811,673578,52794,726372,1873028,1620782,3493810,2223078,734903,464584,417980,13053,75067,346478,78099,248745,66742,Uttar Pradesh,Gonda,27.157215552099505,82.0226888024882,921.454094964821,48.92351858037421
185,UTTAR PRADESH,2464464,1255272,1209192,1393783,819719,574064,513959,3620,783688,558642,225046,443724,339964,1680776,2082976,364510,3493,900,9753,107,37593,108101,3423,30244,513960,31065,545025,1674771,1021192,2695963,1574037,519265,363891,309655,11477,66316,278758,76856,172901,62328,Uttar Pradesh,Basti,26.833880454545447,82.69790590909092,963.2908246180908,56.55521849781535
186,UTTAR PRADESH,1715183,869656,845527,954949,567098,387851,369039,1593,539469,383482,155987,265453,274016,1175714,1300586,404410,1766,447,4393,95,17671,79525,2031,19729,324972,27179,352151,1126522,683053,1809575,1108368,352395,250502,201340,6778,37986,195440,49191,123330,38686,Uttar Pradesh,Sant Kabir Nagar,26.791596516393444,83.0387764344262,972.2545466253323,55.67621647369406
188,UTTAR PRADESH,4440895,2277777,2163118,2700328,1593890,1106438,936061,18172,1351629,1016876,334753,746381,605248,3089266,4009037,403847,9662,2123,2848,460,149727,296619,14597,65360,761958,189170,951128,3103910,1453960,4557870,2755630,992114,659677,531565,30258,157765,544038,255280,390206,213529,Uttar Pradesh,Gorakhpur,26.63315886792452,83.3549560377358,949.6618852503999,60.805941144746726
189,UTTAR PRADESH,3564544,1818055,1746489,1954820,1183722,771098,544231,80269,1116973,804857,312116,523258,593715,2447571,2928462,620244,5006,767,4619,383,29304,127331,3486,35931,742324,42775,785099,2180924,1550315,3731239,2236842,772777,500373,432174,12849,70192,404094,103014,266463,95139,Uttar Pradesh,Kushinagar,26.892530675909864,83.92261542461007,960.6359543578164,54.84067527291009
190,UTTAR PRADESH,3100946,1537436,1563510,1875239,1079288,795951,468663,109894,876246,639073,237173,455382,420864,2224700,2730957,358539,3626,818,1182,209,60348,150001,4469,36068,597778,67928,665706,2392325,1130108,3522433,1946336,664708,481219,353180,13388,84941,379700,122308,257442,100060,Uttar Pradesh,Deoria,26.42218856548857,83.8244070686071,1016.959405139466,60.47312658782191
191,UTTAR PRADESH,4613913,2285004,2328909,2771917,1559414,1212503,1171378,9327,1372032,941890,430142,784272,587760,3241881,3878626,718692,3810,719,5652,183,49699,183381,6652,47324,891024,80434,971458,4024458,1218146,5242604,2930243,965876,699954,521004,20757,116175,500400,159910,299061,135150,Uttar Pradesh,Azamgarh,26.008290954773837,83.01220251256285,1019.2144083774033,60.077357332051996
192,UTTAR PRADESH,2205968,1114709,1091259,1363044,773082,589962,474537,22915,696747,475413,221334,396438,300309,1509221,1769937,428555,2109,340,564,155,40087,149908,2656,26716,352207,99321,451528,1708560,659237,2367797,1402738,467343,323260,228921,7411,47576,232564,82073,160149,87874,Uttar Pradesh,Mau,26.01082203791469,83.50582654028433,978.9631195226737,61.788928941852284
193,UTTAR PRADESH,3239774,1672902,1566872,1963590,1160960,802630,494698,110114,1019483,723060,296423,569522,449961,2220291,3004240,213440,4463,892,1595,233,62157,119972,4672,42969,564927,64454,629381,2348254,1032533,3380787,1975934,724362,502628,324245,10846,65467,342823,115533,217983,124786,Uttar Pradesh,Ballia,25.86075638297873,84.03651978723408,936.6191205462126,60.608857284489595
194,UTTAR PRADESH,4494204,2220465,2273739,2731677,1565394,1166283,990345,4736,1437375,934157,503218,896547,540828,3056829,3981502,483750,4947,1286,7898,349,56508,181467,8002,52398,926088,80582,1006670,3531099,1344789,4875888,2826453,927026,689979,534790,22876,128471,515736,211780,239695,131852,Uttar Pradesh,Jaunpur,25.70141280913127,82.54315351934063,1023.9922718889962,60.782220833767234
195,UTTAR PRADESH,3620268,1855075,1765193,2197549,1293553,903996,726641,28712,1204602,808700,395902,766881,437721,2415666,3233790,368153,4181,810,3145,213,36798,105767,5309,50180,700173,61467,761640,2803884,1008996,3812880,2234593,774130,556273,383511,21169,78218,375976,139187,216165,116171,Uttar Pradesh,Ghazipur,25.624724775583484,83.5360854578097,951.5480506178995,60.70127957377741
196,UTTAR PRADESH,1952756,1017905,934851,1174606,699454,475152,446786,41725,652543,462971,189572,341927,310616,1300213,1727869,215081,2153,1389,340,100,32433,99602,3492,20762,344937,50822,395759,1368472,543247,1911719,1222695,437000,287767,220298,7313,49064,190317,109887,129320,74557,Uttar Pradesh,Chandauli,25.1180859611231,83.25307062634984,918.4069240253266,60.15119144429719
197,UTTAR PRADESH,3676841,1921857,1754984,2403903,1389116,1014787,486958,28617,1220708,921234,299474,920761,299947,2456133,3107681,546987,7696,3309,1146,1898,202055,336056,19214,57583,438935,316129,755064,2748818,906367,3655185,2260457,856070,531549,412569,24216,157861,398076,309911,301753,295357,Uttar Pradesh,Varanasi,25.36057088888889,82.82529666666672,913.1709591296334,65.37957447711229
199,UTTAR PRADESH,2496970,1312302,1184668,1428683,865837,562846,661129,20132,881996,613061,268935,537091,344905,1614974,2292534,195765,2373,1133,341,701,43500,145997,4447,24518,465152,77963,543115,1691126,868542,2559668,1590528,552177,346773,309079,10205,63155,237437,136132,131018,102361,Uttar Pradesh,Mirzapur,25.10207959183675,82.60126628571429,902.7403753099516,57.216666599919094
200,UTTAR PRADESH,1862559,971344,891215,985708,601988,383720,421661,385018,730399,463611,266788,397196,333203,1132160,1738769,103567,3963,1649,1747,487,40467,95582,5149,25220,337048,91040,428088,1092648,745126,1837774,1203938,418914,237866,203774,10279,50700,165535,80712,90701,78826,Uttar Pradesh,Sonbhadra,24.46693268858798,83.06816324951639,917.5070829695761,52.92224300008751
201,UTTAR PRADESH,1774480,947339,827141,1055202,647042,408160,281011,140,545984,440244,105740,415476,130508,1228496,1611126,146346,2464,708,2887,5671,37027,69591,2635,19712,334246,67752,401998,1048892,718310,1767202,1149372,383707,237427,189111,6644,54798,200961,79090,141689,57574,Uttar Pradesh,Etah,27.591155309734443,78.70021858407083,873.1203930166498,59.4654208556873
203,BIHAR,3935042,2061110,1873932,1759481,1091226,668255,553944,250046,1478947,999282,479665,797544,681403,2456095,3047427,865090,8469,926,1337,296,38414,57546,3495,41143,839514,96620,936134,2182688,1710878,3893566,2544205,888205,497793,425249,10911,48435,371137,69056,270894,112382,Bihar,Pashchim Champaran,27.16064352201258,84.30265911949685,909.1858270543543,44.713144103671574
204,BIHAR,5099371,2681209,2418162,2276957,1407603,869354,649726,12461,1737539,1260774,476765,1132789,604750,3361832,4086453,990349,4865,668,878,464,52358,74979,7719,70258,1142260,101565,1243825,3150588,2142757,5293345,3316422,1122340,648009,611212,19282,78531,585210,96546,391064,179522,Bihar,Purba Champaran,26.68129336734693,85.00382155612242,901.8923925736487,44.65172273207813
205,BIHAR,656246,346673,309573,283698,171645,112053,96655,318,216372,166693,49679,137804,78568,439874,552492,99342,522,216,73,52,3983,10004,478,6698,158484,7516,166000,308989,348078,657067,421241,139909,93398,73447,1410,7678,83296,11722,52118,30398,Bihar,Sheohar,26.458380748663107,85.29539411764709,892.9827243540743,43.23043492836528
206,BIHAR,3423574,1803252,1620322,1436794,885188,551606,405714,2989,1114583,865929,248654,753645,360938,2308991,2672311,740101,2897,261,253,188,39465,66263,3460,42461,807294,49670,856964,1635891,1852765,3488656,2206340,739982,449035,317432,7292,38576,340890,61089,217626,152392,Bihar,Sitamarhi,26.56570069686413,85.61172491289203,898.5554986213796,41.96766303284229
207,BIHAR,4487379,2329313,2158066,2155338,1340085,815253,587158,3990,1636938,1105947,530991,1074091,562847,2850441,3652168,818912,3262,564,328,442,47090,113281,5319,65548,1047552,41234,1088786,2698989,2003079,4702068,2860455,1009424,611899,416574,11636,59254,486531,73851,235903,166993,Bihar,Madhubani,26.41380538172716,86.16328360450552,926.481756638116,48.03111125670464
208,BIHAR,2229076,1155283,1073793,1033283,647672,385611,354249,10168,877682,551718,325964,472649,405033,1351394,1809936,409251,3758,271,136,546,12111,51028,1845,25078,572287,27815,600102,1116063,1220268,2336331,1453438,495020,277610,192734,4064,21885,207212,26559,152501,47753,Bihar,Supaul,26.28157893772896,86.78496465201461,929.4631704958871,46.35476762568885
209,BIHAR,2811569,1463333,1348236,1195768,727643,468125,382654,38848,1069893,708391,361502,696410,373483,1741676,1593525,1207442,4116,371,187,1910,17004,43290,2561,29796,659061,44213,703274,1485840,1653766,3139606,1872943,612012,324091,279254,5041,31983,240730,40387,225043,52549,Bihar,Araria,26.211528119180603,87.30766554934816,921.3459957507963,42.530274021373835
210,BIHAR,1690400,866970,823430,745056,439921,305135,113118,64224,529064,421192,107872,384416,144648,1161336,531236,1149095,5783,398,183,1476,11715,58718,1093,14073,401793,43357,445150,769119,945397,1714516,1139615,361114,188447,177516,2436,19539,130592,28736,108435,34858,Bihar,Kishanganj,26.324336758321294,87.95045007235886,949.7791157710186,44.07572172266919
211,BIHAR,3264619,1699370,1565249,1332326,805261,527065,390991,139490,1143318,803275,340043,776385,366933,2121301,1989420,1255641,7989,614,353,1450,33688,86058,4170,33664,712847,85749,798596,1486857,1798786,3285643,2155512,696556,372692,291919,8390,40178,258284,63200,234013,87774,Bihar,Purnia,25.81714801901739,87.40447606973065,921.0760458287482,40.81107167482637
212,BIHAR,3071029,1600430,1470599,1280190,762256,517934,263100,179971,1013566,760522,253044,667602,345964,2057463,1684589,1365645,8659,2754,212,507,32570,60900,2941,27263,668232,69838,738070,1445438,1705551,3150989,2054202,660403,353483,285976,5118,35004,239686,60110,200849,108018,Bihar,Katihar,25.56565356037151,87.70466083591326,918.8774266915767,41.68602771253544
213,BIHAR,2001762,1047559,954203,834577,517666,316911,346275,12532,777546,496046,281500,443507,334039,1224216,1753829,241760,1342,170,60,133,12302,23236,1397,23309,486278,24000,510278,875510,1202278,2077788,1311771,444235,242382,169936,4560,21254,182773,23209,139028,52388,Bihar,Madhepura,25.77341929460581,86.8978443983403,910.8823464835871,41.692119242946966
214,BIHAR,1900661,997174,903487,804996,506374,298622,317249,6009,649898,456724,193174,363326,286572,1250763,1629254,266620,1292,197,60,109,21651,41342,1668,19415,432651,38046,470697,855188,1151349,2006537,1249692,415863,233870,129847,3824,20489,166317,30518,113421,61597,Bihar,Saharsa,25.821270696721303,86.54670819672135,906.0474902073258,42.35347597493714
215,BIHAR,3937385,2059949,1877436,1816634,1125566,691068,615688,2772,1223640,947927,275713,731347,492293,2713745,3042729,881476,3534,832,245,236,59510,127442,6280,53205,907174,95539,1002713,2028545,2203198,4231743,2535344,865971,529314,320695,10325,52586,440719,80085,247667,202524,Bihar,Darbhanga,26.146187719298258,85.97387352472099,911.3992627972829,46.138084032930486
216,BIHAR,4801062,2527497,2273565,2509232,1487117,1022115,751975,5979,1547586,1195308,352278,910304,637282,3253476,4032773,745546,5149,933,288,382,87796,180651,10290,73012,998694,120700,1119394,2903794,1924438,4828232,3016735,1079189,697108,548802,23333,94249,547479,172027,346386,256532,Bihar,Muzaffarpur,26.18664417177915,85.32745092024543,899.5322249640652,52.264103233826184
217,BIHAR,2562012,1267666,1294346,1382998,793905,589093,320064,60807,728201,539586,188615,363111,365090,1833811,2119262,436057,2463,271,167,133,31193,69375,3707,33596,515925,38133,554058,1736879,977719,2714598,1642807,546202,370662,312727,9508,51902,316314,61380,209045,84425,Bihar,Gopalganj,26.44874364161851,84.34636127167629,1021.0465532719186,53.98093373489273
218,BIHAR,3330464,1675090,1655374,1930175,1115906,814269,386685,87000,932416,730396,202020,462104,470312,2398048,2712635,608282,2618,369,407,359,42384,52935,3834,37833,632514,41858,674372,2421121,1207119,3628240,2115448,713597,498299,382782,10891,64065,401299,74071,276680,124672,Bihar,Siwan,26.1736372013652,84.33766552901022,988.2298861553708,57.95513778260326
219,BIHAR,3951862,2022821,1929041,2157454,1285767,871687,474066,36786,1040231,857660,182571,545520,494711,2911631,3534772,406449,2330,371,229,322,51822,94787,4509,37442,701323,76299,777622,2653504,1313700,3967204,2516115,847031,585386,431759,10948,68604,423960,128169,276656,137526,Bihar,Saran,25.89656077844312,84.82266287425155,953.6390021657872,54.59335371528662
220,BIHAR,3495021,1844535,1650486,1926740,1152576,774164,738031,2274,1060344,858648,201696,716006,344338,2434677,3152346,333980,2203,707,362,246,47300,70001,4810,39564,699317,51494,750811,2271286,1479152,3750438,2176701,759132,486032,397202,11316,60246,390123,101269,208882,171904,Bihar,Vaishali,25.8134703180212,85.39247597173153,894.7978758874187,55.12813799974307
221,BIHAR,4261566,2230003,2031563,2142880,1293575,849305,803128,1884,1343400,1037576,305824,907433,435967,2918166,3800598,452370,2126,554,292,231,46123,88021,5379,50918,1012979,43486,1056465,2549708,1996651,4546359,2766930,913339,568812,458268,10621,56464,441421,84248,213527,159459,Bihar,Samastipur,25.793205563909765,85.94833323308269,911.0135726274807,50.28386278659066
222,BIHAR,2970541,1567660,1402881,1548673,918507,630166,432270,1597,938182,715345,222837,591811,346371,2032359,2554330,407348,2209,402,229,276,49493,120373,4644,43127,594377,139248,733625,1822334,1242551,3064885,1951688,644874,369996,295852,9821,41377,334335,76761,193224,186662,Bihar,Begusarai,25.54302613168723,86.12560144032932,894.888560019392,52.13437552284247
223,BIHAR,1666886,883786,783100,768028,461153,306875,247161,675,560805,398216,162589,306283,254522,1106081,1486989,175588,1253,143,79,86,15401,40641,1580,21654,373696,21007,394703,925251,903323,1828574,1114645,355531,195796,99898,3120,14047,159866,31220,88774,78061,Bihar,Khagaria,25.53558891454964,86.56593256351037,886.0742306395439,46.07561644887533
224,BIHAR,3037766,1615663,1422103,1573066,937669,635397,318569,67180,983528,740056,243472,534129,449399,2054238,2487866,537098,3556,415,180,1050,63241,174534,6764,46929,522527,130634,653161,1976417,1139715,3116132,1952879,674660,397654,220531,8644,47618,308044,117040,208730,189954,Bihar,Bhagalpur,25.277192885375477,87.04213814229242,880.1977887715445,51.78364627163514
225,BIHAR,2034763,1067140,967623,965321,590961,374360,247858,90432,771080,517817,253263,374097,396983,1263683,1772655,250925,6138,139,113,94,15459,62359,1704,22300,425604,18492,444096,1214645,879831,2094476,1291235,462080,278863,159201,3258,24398,181116,32859,88429,46555,Bihar,Banka,24.832355642023337,86.8664916342413,906.7441947635737,47.44144649770023
226,BIHAR,1367765,729041,638724,801817,473741,328076,183846,21404,426658,327453,99205,233402,193256,941107,1252319,110416,1815,338,95,145,49141,90461,2653,17946,222281,85782,308063,849734,498676,1348410,860147,316713,188319,112707,3755,24259,149671,69973,109560,102385,Bihar,Munger,25.198537962962963,86.54173672839504,876.1153350771767,58.62242417374329
227,BIHAR,1000912,526345,474567,507270,305182,202088,153209,8333,326576,240494,86082,201866,124710,674336,956396,40886,487,140,52,78,12938,44491,1186,8862,175882,31763,207645,597955,450967,1048922,650642,218840,130655,49052,2415,9577,95917,31048,60658,52316,Bihar,Lakhisarai,25.183449321266963,86.12825701357468,901.6272596870873,50.68077912943396
228,BIHAR,636342,329743,306599,328676,196431,132245,131115,617,224655,151569,73086,148002,76653,411687,596102,37653,313,75,41,43,6803,20065,631,8873,108293,24345,132638,409518,305609,715127,413475,136898,85045,33652,1728,6933,61568,16279,35018,30019,Bihar,Sheikhpura,25.12472436548223,85.77839390862943,929.8120051070076,51.65084184290837
229,BIHAR,2877653,1497060,1380593,1519933,919558,600375,607672,1442,1045420,703405,342015,740949,304471,1832233,2669775,198033,1978,393,414,561,43761,101378,4156,43848,514141,102522,616663,1985188,1324385,3309573,1829128,642197,403129,121583,7955,29239,273472,87070,180298,149675,Bihar,Nalanda,25.229345508982053,85.48053113772461,922.2028509211387,52.818494794195125
230,BIHAR,5838465,3078512,2759953,3459679,2028047,1431632,920918,9069,1881886,1436411,445475,1371267,510619,3956579,5356075,439952,12551,4803,1062,2151,321307,546859,40692,132582,657991,552103,1210094,4920726,2590473,7511199,3626564,1382654,815638,430595,49821,176114,662665,453344,562795,507581,Bihar,Patna,25.40297114503818,85.3198433587787,896.5217611625357,59.25665393215511
231,BIHAR,2728407,1430380,1298027,1599151,973486,625665,425402,13977,822493,640283,182210,512009,310484,1905914,2518216,197819,2165,544,647,1472,45763,62153,3661,34658,434559,77368,511927,2172525,1005140,3177665,1722387,613072,387389,206776,7391,43689,268330,87879,216412,112983,Bihar,Bhojpur,25.50666439393939,84.49407803030304,907.4700429256561,58.61116028510409
232,BIHAR,1706352,887977,818375,989807,593544,396263,251737,26824,538322,402180,136142,328547,209775,1168030,1591454,105423,2125,248,5090,97,27362,46760,1784,19324,299252,35405,334657,1344677,457814,1802491,1074754,375372,253998,137996,5341,26325,174119,48405,130771,64826,Bihar,Buxar,25.48593018867924,84.08808081760995,921.6173391878393,58.00719898356259
234,BIHAR,2959918,1543546,1416372,1799832,1061783,738049,549546,31650,924879,707939,216940,542439,382440,2035039,2645415,300487,2889,2569,1584,252,41659,114893,4594,36279,512383,95678,608061,2188753,876443,3065196,1875174,673742,407193,224824,10819,49892,312557,106218,248462,128652,Bihar,Rohtas,24.99170460829495,83.9350762672811,917.609193376809,60.806819648382145
235,BIHAR,2540073,1318684,1221389,1466002,868733,597269,612064,1033,837770,599157,238613,480286,357484,1702303,2291133,237353,2218,295,334,775,24106,44456,2362,31168,428291,49006,477297,1833998,784131,2618129,1626969,564571,340948,195301,7145,32335,235248,45871,166509,84329,Bihar,Aurangabad,24.774291867469877,84.45986024096379,926.218108356513,57.71495543632014
235,BIHAR,2540073,1318684,1221389,1466002,868733,597269,612064,1033,837770,599157,238613,480286,357484,1702303,2291133,237353,2218,295,334,775,24106,44456,2362,31168,428291,49006,477297,1833998,784131,2618129,1626969,564571,340948,195301,7145,32335,235248,45871,166509,84329,Maharashtra,Aurangabad,20.0979228832952,75.32072196796334,926.218108356513,57.71495543632014
236,BIHAR,4391418,2266566,2124852,2297613,1368803,928810,1334351,3098,1664062,1076170,587892,1007057,657005,2727356,3876395,488121,3943,913,870,1723,57738,112617,6856,57011,696289,111282,807571,2784730,1953368,4738098,2810026,936630,537333,294227,11827,59202,383973,107970,260921,167232,Bihar,Gaya,24.7266541547278,84.94291217765044,937.4763408610206,52.32052608064184
237,BIHAR,2219146,1144668,1074478,1091012,659474,431538,565112,2045,817041,539439,277602,508509,308532,1402105,1964620,244394,1299,250,176,279,20522,31162,1841,28411,379551,45323,424874,1489517,1091439,2580956,1440781,485628,288805,75606,3991,15948,182748,34020,132057,77297,Bihar,Nawada,24.825708836206903,85.61594568965519,938.6809100979499,49.163597167559054
238,BIHAR,1760405,916064,844341,858588,534385,324203,302649,78793,727571,452288,275283,445352,282219,1032834,1525746,217621,8443,162,159,87,12984,32633,1839,22414,325909,30851,356760,1085477,765297,1850774,1135919,392052,227016,113424,4842,18411,159792,27056,64170,45733,Bihar,Jamui,24.78418380462726,86.26316298200514,921.7052520347924,48.77218594584769
239,BIHAR,1125313,585582,539731,618881,374412,244469,222974,1285,365378,266423,98955,251690,113688,759935,1045117,75742,691,148,248,60,15507,27641,1106,11302,186660,28132,214792,725997,495877,1221874,714244,254582,155106,69637,2522,13682,100130,32086,74772,50439,Bihar,Jehanabad,25.155679045643165,84.9208124481328,921.7001205638151,54.99634323961422
245,ARUNACHAL PRADESH,49977,29151,20826,26073,17720,8353,0,34811,28561,19554,9007,24430,4131,21416,11842,787,776,1164,34920,72,3794,8635,96,494,10730,2452,13182,19838,19203,39041,30709,13849,5399,105,895,205,4036,4824,3562,7026,Arunachal Pradesh,Tawang,27.680683962264148,91.82504245283016,714.418030256252,52.169998199171616
246,ARUNACHAL PRADESH,83947,46155,37792,48492,29566,18926,0,46380,42493,28313,14180,34752,7741,41454,31265,1970,8466,328,36087,71,7133,14188,202,887,17889,6306,24195,40193,25606,65799,53026,22362,8493,348,1299,1045,7942,8634,7421,8253,Arunachal Pradesh,West Kameng,27.46486582278483,92.65015750452083,818.8061965117539,57.76501840446948
247,ARUNACHAL PRADESH,78690,38775,39915,38449,21599,16850,0,72400,31710,16424,15286,27123,4587,46980,12333,652,37136,36,452,23,3583,5318,57,885,14503,5215,19718,44247,31763,76010,53752,17922,6960,755,577,1382,4178,3169,4477,4703,Arunachal Pradesh,East Kameng,27.371194055944056,93.04741486013997,1029.4003868471953,48.861354682933026
248,ARUNACHAL PRADESH,176573,89182,87391,121048,65794,55254,0,117216,65772,41263,24509,51157,14615,110801,57027,6148,84397,310,4768,139,22966,30539,2477,7418,20308,30180,50488,110815,30360,141175,120592,43812,11856,3898,6454,8668,27411,23203,23052,25706,Arunachal Pradesh,Papum Pare,27.273529716981127,93.54468183962264,979.9174721356327,68.55408244748631
249,ARUNACHAL PRADESH,83448,41758,41690,45278,24807,20471,0,78323,33370,17898,15472,25717,7653,50078,13474,521,8779,28,297,11,3123,5373,139,750,14542,4672,19214,64790,28364,93154,56054,20055,7230,782,569,1435,3653,3580,5007,6658,Arunachal Pradesh,Upper Subansiri,28.277196566523585,93.8991435622318,998.371569519613,54.25893969897421
250,ARUNACHAL PRADESH,112274,58168,54106,64746,36777,27969,0,92783,49177,29156,20021,43000,6177,63097,15881,2218,29969,577,3311,49,6115,14204,303,1300,22272,8503,30775,74220,27956,102176,70415,28305,13469,2129,1964,4023,10217,9593,10692,15800,Arunachal Pradesh,West Siang,28.106296920289843,94.53510344202908,930.1677898500894,57.66784829969539
251,ARUNACHAL PRADESH,99214,50116,49098,62576,34210,28366,0,69979,40222,23591,16631,33578,6644,58992,27854,2289,18254,69,776,30,4866,14231,450,1582,19497,9524,29021,65119,21543,86662,61993,25334,11802,6380,2072,4568,12744,9363,8399,11735,Arunachal Pradesh,East Siang,28.15382352941176,95.06499226006191,979.6871258679862,63.07174390710988
252,ARUNACHAL PRADESH,35320,18699,16621,18195,10723,7472,0,28468,17644,9968,7676,14524,3120,17676,5261,411,5643,27,2577,7,1504,6198,97,392,8569,2182,10751,20992,11209,32201,21090,8910,5252,136,430,1031,3491,2823,2714,4413,Arunachal Pradesh,Upper Siang,28.8309244897959,95.00155765306124,888.8710626236697,51.514722536806346
253,ARUNACHAL PRADESH,148226,76948,71278,73174,44027,29147,0,53878,62966,39329,23637,50765,12201,85260,47683,2134,35969,94,50381,95,4762,14593,170,1486,33422,6498,39920,80456,57290,137746,96630,35018,16414,13306,1102,2450,10621,9314,9721,19606,Arunachal Pradesh,Changlang,27.36048479338845,96.37552644628106,926.3138743047252,49.3665079000985
254,ARUNACHAL PRADESH,111975,57604,54371,47974,29313,18661,0,98372,50169,27545,22624,44262,5907,61806,20682,1103,83361,61,778,43,3104,16026,98,888,18420,6500,24920,57106,50628,107734,71785,25669,14423,963,679,1369,7182,6118,6582,16937,Arunachal Pradesh,Tirap,26.94406229508198,95.41470327868862,943.8754253176863,42.843491850859564
255,ARUNACHAL PRADESH,83030,41843,41187,54057,29470,24587,0,72911,30202,17339,12863,22669,7533,52828,9551,1482,34402,27,193,13,4211,12493,381,1598,18112,5365,23477,54034,17273,71307,55258,20305,7412,1063,2002,2973,9532,7285,8804,11232,Arunachal Pradesh,Lower Subansiri,27.70849297297297,93.96226108108112,984.3223478240088,65.1053835962905
256,ARUNACHAL PRADESH,92076,45318,46758,36606,20258,16348,0,90764,38044,18429,19615,24372,13672,54032,4859,471,51189,43,121,81,586,3911,95,969,18603,1092,19695,53659,42621,96280,64379,20713,6836,189,605,884,3318,1320,2173,4066,Arunachal Pradesh,Kurung Kumey,28.04853351800553,93.24531994459834,1031.7754534622004,39.756288283591815
258,ARUNACHAL PRADESH,54080,28053,26027,31849,18087,13762,0,25974,22326,14102,8224,19829,2497,31754,28915,2247,9213,33,2932,19,3068,5932,207,742,12000,3950,15950,33141,14406,47547,35140,13254,5652,4410,703,2128,6616,4345,4945,6143,Arunachal Pradesh,Lower Dibang Valley,28.32651730103806,95.76567335640142,927.7795601183474,58.89238165680474
259,ARUNACHAL PRADESH,145726,76221,69505,83062,48380,34682,0,47410,60945,38910,22035,50754,10191,84781,99020,3846,10684,210,24452,104,6549,17157,312,1471,33599,11372,44971,91574,52421,143995,94890,35493,15195,16426,1203,3884,13372,12215,11806,17327,Arunachal Pradesh,Lohit,27.946785273972623,96.59670770547945,911.887799950145,56.998751080795465
261,NAGALAND,250260,131753,118507,119626,67432,52194,0,238285,147654,79425,68229,104981,42673,102606,8102,3444,236494,84,1256,314,1080,14398,178,2844,43607,7415,51022,127058,130529,257587,168773,53600,27437,2148,1007,1571,13012,5647,28073,27663,Nagaland,Mon,26.69207374301676,95.03072988826828,899.4633898279357,47.80068728522337
262,NAGALAND,194622,101092,93530,159494,83479,76015,0,178431,100067,57084,42983,81046,19021,94555,9840,2057,181847,78,442,66,7236,40154,537,2728,37536,17742,55278,169448,22555,192003,111243,52853,30363,2132,3805,5184,22667,20192,41293,41057,Nagaland,Mokokchung,26.478911764705888,94.522426006192,925.1968503937009,81.95065306080505
263,NAGALAND,140757,71217,69540,102881,53504,49377,0,136561,79466,41178,38288,49382,30084,61291,2580,772,136995,39,286,6,1433,28846,261,2008,31267,6044,37311,115295,25988,141283,91709,32267,16730,713,2258,1033,15491,9954,26285,22868,Nagaland,Zunheboto,26.028178205128206,94.50026666666668,976.4522515691478,73.09121393607423
264,NAGALAND,166343,84505,81838,128208,67385,60823,0,156621,78412,42096,36316,63512,14900,87931,5605,2043,158236,34,318,8,3228,25268,198,1757,38499,8170,46669,131916,25048,156964,106951,40510,18811,2907,1592,1713,14850,10923,29411,22108,Nagaland,Wokha,26.202611551155112,94.1990815181518,968.4397372936513,77.07447863751405
265,NAGALAND,378811,197394,181417,278037,150142,127895,0,223989,151350,99645,51705,122358,28992,227461,108900,31212,234239,566,1270,2148,42378,71413,3303,12077,49116,62853,111969,277956,58926,336882,243392,98601,36618,18820,10008,10821,60055,50453,69407,72398,Nagaland,Dimapur,25.814176811594223,93.75074057971014,919.0603564444715,73.39728782955089
266,NAGALAND,163418,83743,79675,105893,57926,47967,0,157146,80277,41556,38721,63645,16632,83141,3563,950,158224,31,350,17,2073,36182,170,1558,38903,7295,46198,112110,44456,156566,108514,37842,16969,549,1780,838,17005,9553,29897,29489,Nagaland,Phek,25.63272986577182,94.56814563758392,951.4228054882199,64.79885936677722
267,NAGALAND,196596,101933,94663,117511,63653,53858,0,190916,98154,52931,45223,73518,24636,98442,2979,1052,191864,27,572,5,773,24998,155,2251,40690,9451,50141,127913,66450,194363,134573,43210,18762,355,1063,738,13878,7687,30295,22080,Nagaland,Tuensang,26.21104453280316,94.85809880715708,928.6786418529819,59.77283362835459
270,NAGALAND,267988,138966,129022,197489,107038,90451,0,224738,114825,68140,46685,99408,15417,153163,25496,4384,234955,998,1519,80,20712,50724,1928,7982,31845,44255,76100,201718,45802,247520,173701,68485,25557,1472,8428,2011,38531,29077,43001,37427,Nagaland,Kohima,25.60311428571428,93.78600657596373,928.4429284861045,73.69322506977925
272,MANIPUR,479148,247323,231825,264477,148012,116465,1000,419210,233622,124143,109479,185725,47897,245526,43833,1649,426819,140,2409,53,2430,22798,256,2170,38008,1826,39834,347896,191001,538897,314439,111516,52008,6761,827,1603,13568,9623,16321,29985,Manipur,Senapati,25.08465586034914,94.03366234413956,937.3370046457467,55.19735029677678
273,MANIPUR,140651,72371,68280,85006,47403,37603,22,134626,70675,37237,33438,55979,14696,69976,2995,589,134760,59,425,57,1229,11541,125,1362,23982,4119,28101,103294,45317,148611,90273,33290,16924,826,495,723,6037,5233,10189,17284,Manipur,Tamenglong,24.98312942238265,93.49450740072204,943.4718326401459,60.43753688206981
274,MANIPUR,274143,138820,135323,195935,104013,91922,443,254787,122655,70594,52061,89779,32876,151488,12034,2886,254979,152,495,87,13371,29894,837,4496,52972,4853,57825,243125,57561,300686,168608,67802,37096,12613,1807,6387,24266,17498,28742,41638,Manipur,Churachandpur,24.30309718875504,93.38671506024085,974.8091053162369,71.4718230996232
275,MANIPUR,237399,118782,118617,156333,87313,69020,22113,3287,109937,62807,47130,76423,33514,127462,175102,18691,4264,56,76,16,11393,34364,676,3447,34977,21172,56149,175322,67610,242932,135220,62907,38815,25026,2009,5782,28217,23140,16508,41441,Manipur,Bishnupur,24.50712111801243,93.8246236024845,998.6109006415114,65.85242566312411
276,MANIPUR,422168,210845,211323,269304,152617,116687,40593,1808,195319,109377,85942,133428,61891,226849,267146,107323,4322,106,114,24,15994,49507,880,5110,65961,38302,104263,315532,118088,433620,251975,107196,62060,57139,3141,11574,48254,34893,29742,78949,Manipur,Thoubal,24.545392553191498,93.97959893617023,1002.2670682254737,63.79071838699285
279,MANIPUR,183998,94718,89280,129829,70148,59681,248,173606,87929,46533,41396,67724,20205,96069,7553,1115,174112,108,635,70,1659,14026,276,2437,36084,5806,41890,158906,42156,201062,113715,43646,25165,1275,1107,944,12142,7360,28568,29549,Manipur,Ukhrul,25.05900314960629,94.44129566929138,942.5874701746236,70.56000608702269
280,MANIPUR,144182,74579,69603,90302,51053,39249,540,128280,76238,42615,33623,53753,22485,67944,10810,3086,129049,136,400,59,1424,18764,184,1782,30377,3783,34160,115663,38191,153854,86255,39324,18329,7705,908,3263,12428,8319,11611,23065,Manipur,Chandel,24.2635812987013,94.09443844155844,933.2788050255434,62.630564148090606
281,MIZORAM,86364,44828,41536,60191,32977,27214,51,82080,39339,24016,15323,36185,3154,47025,2989,1782,69104,13,12328,25,4010,12158,90,1073,16726,4129,20855,64717,20091,84808,55914,20082,10318,550,565,1619,10031,6263,8945,14784,Mizoram,Mamit,23.73852942502819,92.4330803833147,926.5637547961095,69.69454865453199
282,MIZORAM,83955,42918,41037,65895,34147,31748,84,73609,36672,22733,13939,29697,6975,47283,4000,4426,75210,16,108,2,8787,14853,367,1986,9669,12507,22176,65726,14217,79943,52147,20576,11167,1119,867,2488,12841,8392,11294,16632,Mizoram,Kolasib,24.2020004347826,92.73470391304348,956.1722354256955,78.48847596926926
283,MIZORAM,400309,199270,201039,340595,169547,171048,627,373542,174636,104643,69993,151410,23226,225673,13249,5264,379134,105,1570,76,64710,79804,4019,21093,20570,80341,100911,347470,38248,385718,235892,108094,56092,4713,9581,16909,73438,59257,73761,80980,Mizoram,Aizawl,23.90781335453101,92.85359459459472,1008.8774025191951,85.08302336445097
284,MIZORAM,125745,63388,62357,100802,51440,49362,17,123466,60342,34129,26213,53111,7231,65403,1075,699,123446,9,151,45,9115,23948,186,2263,18395,12717,31112,101684,15449,117133,78778,29690,17189,911,1237,3135,19039,13445,21158,24612,Mizoram,Champhai,23.54166580976866,93.24221799485862,983.7350918154856,80.16382361127678
285,MIZORAM,64937,32851,32086,54476,27598,26878,32,62889,32397,18261,14136,29838,2559,32540,991,335,63444,6,60,9,5511,12315,131,987,7472,8018,15490,54133,5963,60096,39568,15894,9404,482,702,1723,10185,7043,11822,12317,Mizoram,Serchhip,23.263864705882344,92.914158496732,976.713037654866,83.89054006190617
286,MIZORAM,161428,82891,78537,121122,64515,56607,178,153533,78292,46230,32062,62013,16279,83136,5231,1290,127124,74,27543,93,14037,26394,482,3725,21479,17315,38794,124314,32451,156765,100250,39690,21424,1020,1982,3706,21471,15871,22896,28570,Mizoram,Lunglei,23.007717036172675,92.63512555425892,947.4731876802065,75.03159303218773
287,MIZORAM,117894,60599,57295,62861,36444,26417,146,112354,45566,28517,17049,38082,7484,72328,1668,522,63892,52,51549,122,5213,9283,162,1329,21993,5273,27266,74574,54874,129448,80723,25303,11831,487,631,658,7895,6657,8506,15309,Mizoram,Lawngtlai,22.36102843137253,92.66964156862753,945.477648146009,53.31993146385736
288,MIZORAM,56574,28594,27980,42233,21861,20372,83,54642,19461,12211,7250,14694,4767,37113,933,514,54977,11,102,4,4783,7400,168,1194,7043,5784,12827,47873,8787,56660,37127,12784,6636,143,507,337,5856,4797,7587,9981,Mizoram,Saiha,22.35744801061008,93.02827931034489,978.5269636986781,74.650899706579
289,TRIPURA,1725739,879428,846311,1361354,722998,638356,338094,431944,698178,500406,197772,524198,173980,1027561,1512801,152791,53622,499,2128,362,103228,314567,6394,36186,289621,217016,506637,1464673,279053,1743726,940424,499719,284637,182610,11356,44499,228799,231324,166347,365146,Tripura,West Tripura,23.780166241299337,91.41310788863107,962.3425681238259,78.88527755355823
290,TRIPURA,876001,447544,428457,646810,351082,295728,140168,344835,366845,253229,113616,258457,108388,509156,736015,49258,39258,245,49420,106,20246,133744,948,10393,219171,44906,264077,691125,188363,879488,505558,236676,133424,83598,3454,12757,87445,78159,38316,174397,Tripura,South Tripura,23.211874098057383,91.6065807585568,957.3516793879484,73.83667370242728
291,TRIPURA,378230,194544,183686,276217,151643,124574,61688,210608,155831,105657,50174,108259,47572,222399,307120,8256,22940,175,39120,85,5532,46875,273,5067,89457,14071,103528,260948,109130,370078,232286,95548,50269,22716,907,3006,25563,24750,15987,58161,Tripura,Dhalai,23.781360477941163,91.94654283088232,944.1874331770705,73.0288448827433
292,TRIPURA,693947,352860,341087,520402,275646,244756,114968,179426,248667,186034,62633,186105,62562,445280,507967,105737,44062,151,34717,307,19631,81601,997,10310,150437,42184,192621,559122,156840,715962,414878,178608,100274,42636,2726,9201,63308,43755,50104,127388,Tripura,North Tripura,24.121739755351683,92.17842538226292,966.6354928300176,74.99160598720074
293,MEGHALAYA,643291,324159,319132,358702,193438,165264,8810,474009,255693,151914,103779,188371,67322,387598,122936,106788,389956,209,3392,144,10006,51301,1630,8872,139351,18594,157945,420622,208900,629522,427629,143604,70599,32839,3589,10923,45766,35051,21585,73800,Meghalaya,West Garo Hills,25.495285185185185,90.03709947089942,984.4921782211816,55.76045677617129
294,MEGHALAYA,317917,161223,156694,192147,102513,89634,509,305180,126073,72262,53811,83936,42137,191844,17272,3359,289708,56,1004,38,1839,24550,288,2368,62698,11518,74216,218602,100781,319383,216742,70424,29926,22238,1167,4732,15314,15115,7915,46851,Meghalaya,East Garo Hills,25.82728228228228,90.64684924924916,971.9084745972968,60.439359958731366
295,MEGHALAYA,142334,73170,69164,82062,45003,37059,319,134237,53069,32826,20243,38397,14672,89265,7036,1050,132984,27,332,10,482,10940,179,1625,35930,3713,39643,95846,44849,140695,97082,30605,14495,2581,695,1700,6235,6721,2347,15916,Meghalaya,South Garo Hills,25.240568578553614,90.64560349127176,945.2507858411917,57.654530892126964
296,MEGHALAYA,383461,193715,189746,230678,117307,113371,168,375097,163345,89694,73651,119803,43542,220116,6498,1533,366881,58,1313,38,476,32873,149,2462,74832,12299,87131,251275,133244,384519,278569,69988,33431,3325,1683,922,19192,12548,15981,29492,Meghalaya,West Khasi Hills,25.500889926739926,91.25364542124538,979.5111374958057,60.15683472373984
298,MEGHALAYA,825922,410749,415173,578030,287270,290760,5642,661158,326786,204303,122483,289576,37210,499136,144935,14185,543394,2495,3111,303,41496,135941,5032,19306,106248,108843,215091,634037,168575,802612,545961,192428,86576,5188,15048,7975,93619,79933,109102,111335,Meghalaya,East Khasi Hills,25.303763888888884,91.75922519841272,1010.770567913738,69.98602773627533
299,MEGHALAYA,395124,196285,198839,187527,87371,100156,1317,376099,154180,88839,65341,110617,43563,240944,12456,1646,271596,34,284,45,7150,41677,510,4333,76546,7171,83717,215217,165184,380401,291097,72934,30362,1826,4790,978,30613,17352,45836,30960,Meghalaya,Jaintia Hills,25.33959557069844,92.37608160136298,1013.0116921822861,47.46029094663954
300,ASSAM,887142,452905,434237,489305,275220,214085,29570,278665,341131,236322,104809,253110,88021,546011,529068,252271,101091,93,1718,396,15089,41373,1218,14063,204896,17115,222011,576006,340601,916607,552671,224715,108956,115712,2996,12191,75903,32320,28132,52532,Assam,Kokrajhar,26.497246635730868,90.13997470997688,958.7816429494044,55.15520626912039
302,ASSAM,1008183,513292,494891,563577,304302,259275,45094,231570,362573,267118,95455,266376,96197,645610,347878,579929,77862,771,194,477,21455,78641,1364,13524,228610,39504,268114,657440,375071,1032511,650509,239831,117427,113964,4112,15292,93630,42628,60181,129311,Assam,Goalpara,26.017277777777807,90.59869891598912,964.1510095618089,55.90026810608788
303,ASSAM,1693622,867004,826618,897058,499038,398020,95320,27344,561824,445297,116527,439453,122371,1131798,492966,1198036,1020,112,49,399,50806,84804,2078,25286,447189,52192,499381,1083591,664161,1747752,1072312,405046,215355,181352,5560,24913,151699,55319,97152,243504,Assam,Barpeta,26.427872264631056,90.97912010178116,953.4189000281428,52.9668367557814
305,ASSAM,2823768,1439112,1384656,1710716,921850,788866,266350,115153,979998,766728,213270,734993,245005,1843770,1225246,1563203,26844,3036,1073,1162,89206,195631,5121,45956,674999,124186,799185,1999919,873197,2873116,1778277,678034,366112,333149,13979,47693,271238,127523,250174,422431,Assam,Nagaon,26.26462170626351,92.9306191144708,962.1599986658439,60.582739091880065
306,ASSAM,1924110,983904,940206,1108572,620525,488047,109130,232207,770606,537195,233411,558325,212281,1153504,1422824,350536,138166,1363,5088,1003,70047,133368,4358,31254,483325,64528,547853,1298039,627141,1925180,1159991,501239,261648,275119,11760,39796,163277,106909,177951,228882,Assam,Sonitpur,26.73514926829268,92.85197804878044,955.5871304517514,57.614793333021495
307,ASSAM,1042137,529674,512463,683486,375552,307934,81840,249426,429995,282250,147745,283533,146462,612142,797130,193476,46217,412,1074,250,32104,60296,1948,15011,293239,34694,327933,795681,275677,1071358,639385,268872,133615,133214,6904,25699,92394,45689,73904,117971,Assam,Lakhimpur,27.14128805970149,94.0775949253732,967.5064284824251,65.58504304136596
308,ASSAM,686133,351249,334884,423028,237761,185267,44225,325560,316800,186577,130223,201364,115436,369333,655052,13475,8711,297,911,167,16547,28195,1192,10410,211758,16504,228262,521393,194984,716377,434221,169630,82051,83663,3504,12293,57166,25776,37742,57995,Assam,Dhemaji,27.586533438485816,94.71336908517353,953.4091200259644,61.65393589872517
309,ASSAM,1327929,680231,647698,798322,453449,344873,37688,82066,557196,366623,190573,410188,147008,770733,1181347,48373,76877,1999,16228,837,70471,161718,5135,27948,290704,90910,381614,910252,417081,1327333,799874,352158,175377,168890,13323,31363,124737,111738,167479,217556,Assam,Tinsukia,27.53549291139241,95.69055949367085,952.173599850639,60.11782256430879
310,ASSAM,1326335,676434,649901,884531,491361,393170,58876,102871,560557,368013,192544,391597,168960,765778,1198401,64526,52968,2261,4673,1055,76292,136685,8817,34479,299852,77163,377015,983760,340744,1324504,767147,371864,186774,172503,21112,44664,139869,121737,177759,214721,Assam,Dibrugarh,27.30612284482757,95.0998282327587,960.7751827968435,66.68986342062902
312,ASSAM,1092256,556805,535451,794929,432335,362594,88665,139971,498618,320746,177872,338635,159983,593638,1008219,54684,21051,1540,2378,719,71639,122063,5651,26357,286330,80824,367154,892694,209170,1101864,604908,315550,171062,164118,16081,44159,128081,92598,145819,155435,Assam,Jorhat,26.76244824016563,94.30197722567289,961.6490512836631,72.7786343128351
313,ASSAM,1066888,543161,523727,721764,396475,325289,62298,111765,479928,309104,170824,331210,148718,586960,917426,90312,50582,1131,3863,530,40889,82345,3073,17636,292893,34190,327083,820800,258897,1079697,629153,289085,148244,157029,9295,27300,103909,70930,123520,153723,Assam,Golaghat,26.377219709794485,93.82583397823468,964.220553390247,67.6513373475004
314,ASSAM,956313,490167,466146,557214,314253,242961,44961,538738,383441,246193,137248,260482,122959,572872,766000,20290,157789,370,6260,397,18763,53918,1923,11340,215691,37185,252876,676227,310093,986320,618633,233739,103123,97148,3934,13699,78269,56689,51860,96932,Assam,Karbi Anglong,26.08966454598031,93.11536570271832,950.9942529790867,58.26690633715113
316,ASSAM,1736617,886284,850333,1174128,639946,534182,264897,17569,608062,469752,138310,471259,136803,1128555,1038985,654816,37635,280,341,1673,62135,140205,5316,37541,346227,88933,435160,1378531,357907,1736438,1048990,444899,241776,93297,8700,22647,168487,99887,159266,298041,Assam,Cachar,24.815570668693017,92.86849650455927,959.4362529392384,67.61007176596797
317,ASSAM,1228686,625864,602822,795297,435942,359355,157890,1940,399171,319798,79373,293392,105779,829515,521962,692489,11990,114,446,524,28261,70951,1933,24699,261945,32695,294640,935508,303785,1239293,779850,284368,163990,38218,3757,7289,105749,38570,98861,210254,Assam,Karimganj,24.69660712250711,92.3679498575498,963.1836948602253,64.72744053403392
318,ASSAM,659296,337890,321406,407366,226836,180530,70659,691,214240,170792,43448,165193,49047,445056,251194,397653,8480,84,490,247,11035,44143,1211,10615,159215,16202,175417,500042,173306,673348,419921,156243,82841,27808,2583,5589,55345,19998,49075,119292,Assam,Hailakandi,24.457496089385486,92.59154664804475,951.2148924206103,61.78802844245984
319,ASSAM,738804,375818,362986,434078,237114,196964,82784,18835,255806,197542,58264,191671,64135,482998,359145,371033,5924,384,236,871,29937,49866,2523,12959,181923,38470,220393,479431,260721,740152,458796,184849,94939,97820,5837,16579,78595,36350,47000,84687,Assam,Bongaigaon,26.45012521994133,90.6734296187684,965.8558131861698,58.75414859692151
321,ASSAM,1517542,778461,739081,995319,550219,445100,107827,182038,628954,428492,200462,421244,207710,888588,877495,601784,33297,319,185,1330,70272,122191,3109,23468,390596,43849,434445,1142942,392678,1535620,895775,408232,212740,199425,10052,34461,164899,90941,124575,180800,Assam,Kamrup,26.170939452054807,91.58863273972592,949.4130084872588,65.58757517090137
323,ASSAM,771639,396006,375633,531771,293184,238587,60216,23364,267623,210202,57421,196773,70850,504016,491582,277488,429,62,27,1004,37849,68313,1631,12360,210706,28238,238944,606629,188960,795589,442061,211320,117809,107774,4785,18810,86710,45938,80855,103600,Assam,Nalbari,26.46323767605632,91.40598521126763,948.5538097907607,68.91447943921963
325,ASSAM,928500,475273,453227,487039,268666,218373,40260,8419,324843,246864,77979,241456,83387,603657,327322,597392,1688,431,57,724,17676,45444,1166,12084,268517,20189,288706,575240,375556,950796,583436,226525,118102,109858,3533,13662,72141,30616,46789,95080,Assam,Darrang,26.58463215962442,92.04141338028155,953.6140281480328,52.4543887991384
327,WEST BENGAL,1846823,937259,909564,1315585,717673,597912,317275,397389,683726,479586,204140,532855,150871,1163097,1366681,105086,141848,2032,209240,1840,141897,297176,10943,38065,303284,215675,518959,1343837,415353,1759190,1031221,523288,289979,125953,15192,39828,239601,222987,196540,251140,West Bengal,Darjiling,26.839619571045585,88.33145067024122,970.4510706218879,71.23503443481049
328,WEST BENGAL,3872846,1983064,1889782,2498780,1396622,1102158,1458278,731704,1512910,1091361,421549,1153765,359145,2359936,3156781,445817,186279,2994,50676,1461,138522,382500,9322,48818,798378,319426,1117804,2626587,1203423,3830010,2259507,1035449,575667,502539,16431,67075,332800,268908,302540,428531,West Bengal,Jalpaiguri,26.62642031250004,89.04154375000003,952.9606709617037,64.5205102397565
330,WEST BENGAL,3007134,1551066,1456068,1489667,853495,636172,807950,162816,1075626,799627,275999,824342,251284,1931508,1482943,1501170,16702,477,432,1324,39138,199307,2883,31210,683981,94269,778250,1622095,1431264,3053359,1916033,704859,385155,362567,8150,31859,198832,105431,179022,164644,West Bengal,Uttar Dinajpur,26.044619165196977,88.23595232216337,938.7530898104917,49.53776585945289
331,WEST BENGAL,1676276,857199,819077,1083685,596474,487211,482754,275366,702987,499560,203427,526470,176517,973289,1232850,412788,24794,276,148,323,37186,168069,2518,24318,390949,70077,461026,1155081,534394,1689475,937283,465982,271423,225689,6211,20163,154925,103980,86762,145974,West Bengal,Dakshin Dinajpur,25.342094363021435,88.69821679819614,955.5272462987008,64.64836339600399
332,WEST BENGAL,3988845,2051541,1937304,2086432,1152019,934413,835430,313984,1537847,1086461,451386,1050995,486852,2450998,1914352,2045151,13209,747,359,639,54213,297716,5357,63525,830318,128678,958996,2161924,1960034,4121958,2511004,955283,520122,401774,9639,41600,295922,142659,175732,266247,West Bengal,Maldah,25.08026802575105,88.17191684549356,944.3164918468605,52.30667022659442
333,WEST BENGAL,7103807,3627564,3476243,4055834,2177187,1878647,897534,91035,2589907,1985667,604240,2022083,567824,4513900,2359061,4707573,18102,766,348,3037,92742,541169,7951,79729,1501066,350899,1851965,4346870,3031841,7378711,4390564,1717594,991413,840951,14050,74313,530442,296566,388157,617358,West Bengal,Murshidabad,24.25950655391121,88.16816860465121,958.2857807608632,57.09380899565543
334,WEST BENGAL,3502404,1790920,1711484,2158447,1201481,956966,1033140,242484,1331603,1029770,301833,912844,418759,2170801,2181515,1298054,10906,582,258,1152,57010,333752,5210,39636,831044,134565,965609,2200345,1346802,3547147,2008655,952059,539463,451618,7305,54557,272320,191514,186877,195797,West Bengal,Birbhum,24.06389342723,87.65153089201888,955.6451432783151,61.62758493880204
335,WEST BENGAL,7717563,3966889,3750674,5247208,2918040,2329168,2115719,489447,2911251,2293083,618168,2166742,744509,4806312,6008472,1599764,21220,16675,1602,1674,292585,1049943,32323,141387,1364868,862368,2227236,5449930,2196886,7646816,4149420,2265543,1292913,1104486,46714,263368,930784,747286,804546,949552,West Bengal,Barddhaman,23.444453888888884,87.8150581111111,945.4950718308478,67.99047834141425
